"","ADDRESSS","name","lat","long","accuracy","formatted_address"
"1","240 FLATBUSH AVE 11217","BLEACHERS SPORTS BAR AND GRILL",40.6802314,40.6802314,"premise","240 Flatbush Ave, Brooklyn, NY 11217, USA"
"2","240 KENT AVE 11249","BROOKLYN ROASTING COMPANY",40.7168961,40.7168961,"premise","240 Kent Ave, Brooklyn, NY 11249, USA"
"3","240 KINGS HIGHWAY 11223","PULI BROTHERS II",40.6051761,40.6051761,"street_address","240 Kings Hwy, Brooklyn, NY 11223, USA"
"4","240 LAFAYETTE ST 10012","BY CHLOE",40.7227687,40.7227687,"premise","240 Lafayette St, New York, NY 10012, USA"
"5","240 MANHATTAN AVE 10026","STARBUCKS",40.801218,40.801218,"street_address","240 Manhattan Ave, New York, NY 10026, USA"
"6","240 PAGE AVE 10307","MIZU HIBACHI JAPANESE FUSION",40.5178016,40.5178016,"premise","240 Page Ave, Staten Island, NY 10307, USA"
"7","240 PAGE AVENUE 10307","E SQUARED CAFE",40.5178016,40.5178016,"premise","240 Page Ave, Staten Island, NY 10307, USA"
"8","240 PARK AVENUE SOUTH 10003","STARBUCKS",40.7380436,40.7380436,"premise","240 Park Ave S, New York, NY 10003, USA"
"9","240 PROSPECT PARK W 11215","BRUNSWICK PROSPECT PARK WEST",40.6594483,40.6594483,"premise","240 Prospect Park West, Brooklyn, NY 11215, USA"
"10","240 SULLIVAN ST 10012","",40.7299575,40.7299575,"premise","D'Agostino Hall, 240 Sullivan St, New York, NY 10012, USA"
"11","240 SULLIVAN STREET 10012","THIRD RAIL COFFEE",40.7299575,40.7299575,"premise","D'Agostino Hall, 240 Sullivan St, New York, NY 10012, USA"
"12","240 UTICA AVE 11213","TEXAS FRIED CHICKEN AND PIZZA",40.6705372,40.6705372,"street_address","240 Utica Ave, Brooklyn, NY 11213, USA"
"13","240 W 231 ST 10463","ESTRELLITA POBLANA",40.8795233,40.8795233,"street_address","240 W 231st St, Bronx, NY 10463, USA"
"14","240 W 35TH ST 10001","ENTREE",40.7520873,40.7520873,"premise","240 W 35th St, New York, NY 10001, USA"
"15","240 W 52ND ST 10019","HOWL AT THE MOON",40.7629523,40.7629523,"premise","240 W 52nd St, New York, NY 10019, USA"
"16","240 WEST   14 STREET 10011","CRISPO",40.7391368,40.7391368,"premise","240 W 14th St, New York, NY 10011, USA"
"17","240 WEST   35 STREET 10001","CAFE NUNEZ",40.7520873,40.7520873,"premise","240 W 35th St, New York, NY 10001, USA"
"18","240 WEST   40 STREET 10018","DUNKIN' DONUTS, BASKIN ROBBINS",40.7552412,40.7552412,"premise","240 W 40th St, New York, NY 10018, USA"
"19","240 WEST   44 STREET 10036","THE HELEN HAYES THEATRE",40.7578637,40.7578637,"premise","240 W 44th St, New York, NY 10036, USA"
"20","240 WEST   47 STREET 10036","EDISON BALLROOM",40.7596325,40.7596325,"street_address","240 W 47th St, New York, NY 10036, USA"
"21","240 WEST   54 STREET 10019","IGUANA RESTAURANT",40.7642063,40.7642063,"street_address","240 W 54th St, New York, NY 10019, USA"
"22","240 WEST   55 STREET 10019","MCGEES PUB",40.764892,40.764892,"street_address","240 W 55th St, New York, NY 10019, USA"
"23","240 WEST   56 STREET 10019","BENARES INDIAN FOOD",40.7656519,40.7656519,"street_address","240 W 56th St, New York, NY 10019, USA"
"24","2400 WESTCHESTER AVENUE 10461","DUNKIN' DONUTS",40.8367108,40.8367108,"premise","2400 Westchester Ave, Bronx, NY 10461, USA"
"25","2400 YORKMONT ROAD 28217","HUDSON RIVER TRADING",35.1902524,35.1902524,"premise","2400 Yorkmont Rd, Charlotte, NC 28217, USA"
"26","2401 29 STREET 11102","THE SPARROW TAVERN",40.7727726,40.7727726,"street_address","24-01 29th St, Long Island City, NY 11102, USA"
"27","2401 44 ROAD 11101","U.N. FEDERAL CREDIT UNION",40.7484785,40.7484785,"premise","24-01 44th Rd, Long Island City, NY 11101, USA"
"28","2401 WESTCHESTER AVENUE 10461","CAPRI PIZZA RESTAURANT",40.8372031,40.8372031,"street_address","2401 Westchester Ave, Bronx, NY 10461, USA"
"29","2402 31 STREET 11102","ELIAS CORNER FOR FISH",40.772309,40.772309,"premise","24-02 31st St, Long Island City, NY 11102, USA"
"30","2402 82 STREET 11370","TIKKA GRILL",40.7647757,40.7647757,"street_address","2402 82nd St, East Elmhurst, NY 11370, USA"
"31","2402 86 STREET 11214","THE LIVING ROOM STEAK HOUSE",40.5988032,40.5988032,"premise","2402 86th St, Brooklyn, NY 11214, USA"
"32","2402 CONEY ISLAND AVENUE 11223","PECTOPAH TYPMAH (GURMAN RESTAURANT)",40.5984738,40.5984738,"premise","2402 Coney Island Ave, Brooklyn, NY 11223, USA"
"33","2403 CAMBRELENG AVE 10458","CAMBRELENG COFFEE CORP.",40.8548341,40.8548341,"street_address","2403 Cambreleng Ave, Bronx, NY 10458, USA"
"34","2403 QUEENS PLAZA NORTH 11101","SCANDALS",40.7513744,40.7513744,"premise","24-03 Queens Plaza N, Long Island City, NY 11101, USA"
"35","2406 MERMAID AVENUE 11224","EAST FAR RESTAURANT",40.575705,40.575705,"premise","2406 Mermaid Ave, Brooklyn, NY 11224, USA"
"36","2407 ARTHUR AVENUE 10458","ANN & TONY'S RESTAURANT",40.8558441,40.8558441,"premise","2407 Arthur Ave, Bronx, NY 10458, USA"
"37","2407 WESTCHESTER AVENUE 10461","COCONUT PALM BAR AND GRILL",40.8373738,40.8373738,"premise","2407 Westchester Ave, Bronx, NY 10461, USA"
"38","2409 2ND AVE 10035","KENNEDY CHICKEN & PIZZA",40.8019277,40.8019277,"premise","2409 2nd Ave, New York, NY 10035, USA"
"39","2409 RICHMOND AVENUE 10314","SUBWAY",40.588769,40.588769,"premise","2409 Richmond Ave, Staten Island, NY 10314, USA"
"40","2409 STEINWAY STREET 11103","CAFE VIA EXPRESSO",40.7686759,40.7686759,"street_address","24-09 Steinway St, Astoria, NY 11103, USA"
"41","240A CANAL ST 10013","",40.7180481,40.7180481,"street_address","240A Canal St, New York, NY 10013, USA"
"42","241 AVENUE X 11223","SUSHI AVE X",40.5902976,40.5902976,"street_address","241 Avenue X, Brooklyn, NY 11223, USA"
"43","241 BAY RIDGE AVE 11220","DELICIAS TAJADAS BAKERY & RESTAURANT",40.6363881,40.6363881,"premise","241 Bay Ridge Ave, Brooklyn, NY 11220, USA"
"44","241 BEACH 116 STREET 11694","PANINICO CAFE INC",40.5804826,40.5804826,"street_address","241 Beach 116th St, Rockaway Park, NY 11694, USA"
"45","241 BOWERY 10002","LA GAMELLE",40.722486,40.722486,"premise","241 Bowery, New York, NY 10002, USA"
"46","241 BUSHWICK AVENUE 11206","DANNY'S PIZZERIA & CAFE",40.7078664,40.7078664,"premise","241 Bushwick Ave, Brooklyn, NY 11206, USA"
"47","241 CANAL STREET 10013","STARBUCKS",40.718362,40.718362,"street_address","241 Canal St, New York, NY 10013, USA"
"48","241 COOK ST 11206","TAQUERIA EL FOGON 2",40.7036505,40.7036505,"premise","241 Cook St, Brooklyn, NY 11206, USA"
"49","241 E 10TH ST 10003","SNOWDAYS SHAVERY",40.7290371,40.7290371,"street_address","241 E 10th St, New York, NY 10003, USA"
"50","241 E 24TH ST 10010","NEW YORK COMEDY CLUB",40.7389512,40.7389512,"premise","241 E 24th St, New York, NY 10010, USA"
"51","241 MULBERRY ST 10012","LIGHTHOUSE OUTPOST",40.7228844,40.7228844,"premise","241 Mulberry St, New York, NY 10012, USA"
"52","241 ROCKAWAY PARKWAY 11212","DUNKIN' DONUTS, BASKIN ROBBINS",40.6615102,40.6615102,"street_address","241 Rockaway Pkwy, Brooklyn, NY 11212, USA"
"53","241 ROGERS AVE 11225","MARKER COFFEE",40.668076,40.668076,"premise","241 Rogers Ave, Brooklyn, NY 11225, USA"
"54","241 SHERMAN AVENUE 10034","BIZCOCHO DE COLORES",40.8658296,40.8658296,"premise","241 Sherman Ave, New York, NY 10034, USA"
"55","241 SMITH STREET 11231","JOLIE CANTINA",40.6835698,40.6835698,"premise","241 Smith St, Brooklyn, NY 11231, USA"
"56","241 SOUTH    4 STREET 11211","XIXA",40.7104476,40.7104476,"street_address","241 S 4th St, Brooklyn, NY 11211, USA"
"57","241 SULLIVAN STREET 10012","SHADE",40.7298997,40.7298997,"street_address","241 Sullivan St, New York, NY 10012, USA"
"58","241 W 54TH ST 10019","CREATIVE CATERERS",40.7644994,40.7644994,"street_address","241 W 54th St, New York, NY 10019, USA"
"59","241 WEST   14 STREET 10011","NORWOOD",40.7394874,40.7394874,"premise","241 W 14th St, New York, NY 10011, USA"
"60","241 WEST 42 STREET 10036","DALLAS BBQ",40.7570673,40.7570673,"street_address","241 W 42nd St, New York, NY 10036, USA"
"61","2410 ARTHUR AVENUE 10458","TINOS DELICATESSEN",40.8557741,40.8557741,"premise","2410 Arthur Ave, Bronx, NY 10458, USA"
"62","2410 CONEY ISLAND AVE 11223","MCDONALD'S",40.5980829,40.5980829,"premise","2410 Coney Island Ave, Brooklyn, NY 11223, USA"
"63","24106 HILLSIDE AVENUE 11426","HILLSIDE DELICATESSEN AND CATERERS",40.7336137,40.7336137,"street_address","241-06 Hillside Avenue, Jamaica, NY 11426, USA"
"64","2411 86TH ST 11214","MCDONALD'S",40.5992539,40.5992539,"street_address","2411 86th St, Brooklyn, NY 11214, USA"
"65","2411 STEINWAY STREET 11103","DUZAN",40.7686462,40.7686462,"street_address","24-11 Steinway St, Astoria, NY 11103, USA"
"66","2412 3RD AVE 10454","MOTT HAVEN BAR & GRILL",40.808318,40.808318,"street_address","2412 Third Ave, Bronx, NY 10454, USA"
"67","2412 STEINWAY STREET 11103","DUNKIN' DONUTS",40.7626109,40.7626109,"street_address","2412 Steinway St, Astoria, NY 11103, USA"
"68","24121 BRADDOCK AVE 11426","VINNY'S PIT STOP",40.7264928,40.7264928,"street_address","241-21 Braddock Ave, Jamaica, NY 11426, USA"
"69","2413 WESTCHESTER AVENUE 10461","NEW JADE GARDEN",40.8375252,40.8375252,"premise","2413 Westchester Ave, Bronx, NY 10461, USA"
"70","2413A 2ND AVE 10035","NEW DRAGON ONE",40.8019939,40.8019939,"premise","2413a 2nd Ave, New York, NY 10035, USA"
"71","2414 149 STREET 11357","PARKSIDE PUB",40.7769904,40.7769904,"street_address","24-14 149th St, Flushing, NY 11357, USA"
"72","2414 34 AVENUE 11106","HUNAN CHINESE RESTAURANT",40.7614146,40.7614146,"street_address","24-14 34th Ave, Astoria, NY 11106, USA"
"73","2414 GERRITSEN AVENUE 11229","VETERANS OF FOREIGN WARS POST #107 CANTEEN",40.598023,40.598023,"street_address","2414 Gerritsen Ave, Brooklyn, NY 11229, USA"
"74","2414 WILLIAMSBRIDGE RD 10469","YANG'S HAPPY GARDEN",40.8615656,40.8615656,"street_address","2414 Williamsbridge Rd, Bronx, NY 10469, USA"
"75","2415 E TREMONT AVE 10461","FRANKY POLLOS",40.842788,40.842788,"premise","2415 E Tremont Ave, Bronx, NY 10461, USA"
"76","2415 STEINWAY ST 11103","CAIRO GRILL & SEAFOOD",40.7685916,40.7685916,"street_address","2415 Steinway St, Astoria, NY 11103, USA"
"77","2417 149 STREET 11357","WHITESTONE BAGEL FACTORY",40.7768177,40.7768177,"street_address","24-17 149th St, Flushing, NY 11357, USA"
"78","2417 DITMARS BOULEVARD 11105","MIA PIZZA",40.7790622,40.7790622,"street_address","24-17 Ditmars Blvd, Long Island City, NY 11105, USA"
"79","2417 HOLLERS AVENUE 10475","BOWLER LAND",40.8860499,40.8860499,"premise","2417 Hollers Ave, Bronx, NY 10475, USA"
"80","2417 STEINWAY STREET 11103","LAYALI DUBAI",40.7685376,40.7685376,"street_address","24-17 Steinway St, Astoria, NY 11103, USA"
"81","2418 BROADWAY 10024","CIBO E VINO",40.7899815,40.7899815,"street_address","2418 Broadway, New York, NY 10024, USA"
"82","2419 2ND AVE 10035","TROPICAL GRILL",40.802342,40.802342,"street_address","2419 2nd Ave, New York, NY 10035, USA"
"83","2419 ADAM CLAYTON POWELL JR BOULEVARD 10030","FU ON KITCHEN",40.8192368,40.8192368,"street_address","2419 Adam Clayton Powell Jr Blvd, New York, NY 10030, USA"
"84","2419 CONEY ISLAND AVENUE 11223","DUNKIN' DONUTS",40.5978699,40.5978699,"premise","2419 Coney Island Ave, Brooklyn, NY 11223, USA"
"85","2419 FOSTER AVE 11210","2419 CHINA STAR RESTAURANT",40.6384459,40.6384459,"street_address","2419 Foster Ave, Brooklyn, NY 11210, USA"
"86","241B NYC TERMINAL MARKET 10474","SOUTH SIDE GOURMET SPANISH AND AMERICAN FOOD",40.8187198,40.8187198,"route","Bronx Terminal Market, Bronx, NY 10451, USA"
"87","242 10 AVENUE 10001","TRESTLE ON TENTH/ROCKET PIG",40.748382,40.748382,"street_address","242 10th Ave, New York, NY 10001, USA"
"88","242 5TH AVE 11215","SEED",40.675494,40.675494,"premise","242 5th Ave, Brooklyn, NY 11215, USA"
"89","242 8 AVENUE 10011","MURRAY'S BAGELS",40.7447481,40.7447481,"premise","242 8th Ave, New York, NY 10011, USA"
"90","242 CANAL STREET 10013","242 CAFE BAKERY",40.7179827,40.7179827,"premise","242 Canal St, New York, NY 10013, USA"
"91","242 COURT ST 11201","AWASH ETHIOPIAN RESTAURANT",40.6858033,40.6858033,"premise","242 Court St, Brooklyn, NY 11201, USA"
"92","242 DEKALB AVENUE 11205","ALIBI CLUB",40.6893199,40.6893199,"premise","242 Dekalb Ave, Brooklyn, NY 11205, USA"
"93","242 E 10TH ST 10003","PINKS",40.7287702,40.7287702,"premise","242 E 10th St, New York, NY 10003, USA"
"94","242 E 14TH ST 10003","KFC",40.7322684,40.7322684,"street_address","242 E 14th St, New York, NY 10003, USA"
"95","242 E 50TH ST 10022","SOFIA WINE BAR",40.7549809,40.7549809,"premise","242 E 50th St, New York, NY 10022, USA"
"96","242 EAST    3 STREET 10009","ROSSY'S BAKERY & COFFEE SHOP",40.7218637,40.7218637,"premise","242 E 3rd St, New York, NY 10009, USA"
"97","242 EAST   40 STREET 10016","PHOENIX GARDEN",40.7486299,40.7486299,"premise","242 E 40th St, New York, NY 10016, USA"
"98","242 EAST   79 STREET 10075","OUR PLACE CHINA CHALET",40.7733804,40.7733804,"street_address","242 E 79th St, New York, NY 10075, USA"
"99","242 EAST   81 STREET 10028","LUKE'S LOBSTER",40.7747367,40.7747367,"street_address","242 E 81st St, New York, NY 10028, USA"
"100","242 EAST  116 STREET 10029","PASTELES CAPY",40.797001,40.797001,"street_address","242 E 116th St, New York, NY 10029, USA"
"101","242 FLATBUSH AVENUE 11217","WOODLAND",40.680177,40.680177,"premise","242 Flatbush Ave, Brooklyn, NY 11217, USA"
"102","242 HIMROD ST 11237","DARLING'S",40.699996,40.699996,"premise","242 Himrod St, Brooklyn, NY 11237, USA"
"103","242 MOTT STREET 10012","CAFE GITANE",40.7231554,40.7231554,"premise","242 Mott St, New York, NY 10012, USA"
"104","242 WEST   16 STREET 10011","THE GREY DOG",40.7404343,40.7404343,"street_address","242 W 16th St, New York, NY 10011, USA"
"105","242 WEST   34 STREET 10001","GARRETT POPCORN SHOPS",40.752981,40.752981,"route","W 34th St, New York, NY 10001, USA"
"106","242 WEST   49 STREET 10019","CIELO AT THE MAYFAIR",40.7611761,40.7611761,"premise","242 W 49th St, New York, NY 10019, USA"
"107","242 WEST   56 STREET 10019","SZECHUAN GOURMET",40.7656618,40.7656618,"street_address","242 W 56th St, New York, NY 10019, USA"
"108","242 WEST 45th Street 10036","BERNARD B JACOBS THEATER",40.7587254,40.7587254,"street_address","242 W 45th St, New York, NY 10036, USA"
"109","242-244 EAST   79 STREET 10075","SOJOURN",40.7733602,40.7733602,"street_address","244 E 79th St, New York, NY 10075, USA"
"110","24202 61 AVENUE 11362","BURGER KING",40.7543546,40.7543546,"premise","242-02 61st Ave, Douglaston, NY 11362, USA"
"111","24203 NORTHERN BLVD 11363","ITZ FIRE",40.7655492,40.7655492,"street_address","242-03 Northern Blvd, Douglaston, NY 11362, USA"
"112","24205 NORTHERN BLVD 11362","AEGEA WEST",40.765337,40.765337,"street_address","242-5 Northern Blvd, Little Neck, NY 11362, USA"
"113","2421 ADAM CLAYTON POWELL JR B 10030","POLANCO RESTAURANT BBQ",40.8191934,40.8191934,"street_address","2421 Adam Clayton Powell Jr Blvd, New York, NY 10030, USA"
"114","2421 STEINWAY STREET 11103","NOISETTE CAFE",40.7684173,40.7684173,"street_address","24-21 Steinway St, Long Island City, NY 11103, USA"
"115","24222 MERRICK BOULEVARD 11422","NEW KIM'S CHINESE FOOD",40.6738395,40.6738395,"street_address","242-22 Merrick Blvd, Rosedale, NY 11422, USA"
"116","2423 ARTHUR AVE 10458","MALESIA CAFE",40.856271,40.856271,"street_address","2423 Arthur Ave, Bronx, NY 10458, USA"
"117","2424 3RD AVE 10454","FILTERED COFFEE BRONX",40.8094321,40.8094321,"street_address","2424 Third Ave, Bronx, NY 10454, USA"
"118","2424 BROADWAY 10024","DUNKIN' DONUTS",40.7903926,40.7903926,"street_address","2424 Broadway, New York, NY 10024, USA"
"119","2425 BROADWAY 10024","OLLIES TO GO",40.7904902,40.7904902,"street_address","2425 Broadway, New York, NY 10024, USA"
"120","2425 CONEY ISLAND AVE 11223","BURGER KING",40.5977156,40.5977156,"premise","2425 Coney Island Ave, Brooklyn, NY 11223, USA"
"121","2425 GRAND CONCOURSE 10468","MOM'S BAKERY",40.8609173,40.8609173,"premise","2425 Grand Concourse, Bronx, NY 10468, USA"
"122","2425 HYLAN BOULEVARD 10306","DUNKIN' DONUTS",40.5721276,40.5721276,"premise","2425 Hylan Blvd, Staten Island, NY 10306, USA"
"123","2425 STEINWAY STREET 11103","SABRY'S SEAFOOD RESTAURANT",40.7683047,40.7683047,"street_address","2425 Steinway St, Astoria, NY 11103, USA"
"124","2426 JEROME AVENUE 10468","STEVE'S BAKERY",40.8620949,40.8620949,"street_address","2426 Jerome Ave, Bronx, NY 10468, USA"
"125","2426 PITKIN AVENUE 11208","LA BONA PIZZA RESTAURANT",40.6736445,40.6736445,"premise","2426 Pitkin Ave, Brooklyn, NY 11208, USA"
"126","2427 BROADWAY 10024","CANDLE CAFE WEST",40.7905977,40.7905977,"street_address","2427 Broadway, New York, NY 10024, USA"
"127","2428 CRESTON AVENUE 10468","SZECHUAN GARDEN",40.861424,40.861424,"street_address","2428 Creston Ave, Bronx, NY 10468, USA"
"128","2428 HUGHES AVE 10458","",40.8559326,40.8559326,"street_address","2428 Hughes Ave, Bronx, NY 10458, USA"
"129","2428 JACKSON AVENUE 11101","BROOKS 1890 RESTAURANT",40.7462675,40.7462675,"street_address","2428 Jackson Ave, Long Island City, NY 11101, USA"
"130","243 3 AVENUE 10003","DUNKIN' DONUTS, BASKIN ROBBINS",40.7367596,40.7367596,"premise","243 3rd Ave, New York, NY 10003, USA"
"131","243 9 AVENUE 10001","DUNKIN' DONUTS",40.7476704,40.7476704,"street_address","243 9th Ave, New York, NY 10001, USA"
"132","243 BEACH 20TH ST 11691","CHANG XING KITCHEN",40.5961391,40.5961391,"street_address","2-43 Beach 20th St, Far Rockaway, NY 11691, USA"
"133","243 BEDELL AVENUE 10307","SOUTH SHORE LITTLE LEAGUE CONCESION STAND",40.5077921,40.5077921,"premise","243 Bedell Ave, Staten Island, NY 10307, USA"
"134","243 BLEECKER STREET 10014","PASTICCERIA ROCCO",40.7308639,40.7308639,"premise","243 Bleecker St, New York, NY 10014, USA"
"135","243 BUSHWICK AVENUE 11206","BUSHWICK PITA PALACE",40.7075326,40.7075326,"premise","243 Bushwick Ave, Brooklyn, NY 11206, USA"
"136","243 DEKALB AVENUE 11205","ROMAN'S",40.6896356,40.6896356,"premise","243 Dekalb Ave, Brooklyn, NY 11205, USA"
"137","243 E 14TH ST 10003","THE WINSLOW",40.732778,40.732778,"premise","243 E 14th St, New York, NY 10003, USA"
"138","243 EAST   53 STREET 10022","LUNA PIENA",40.7572383,40.7572383,"premise","243 E 53rd St, New York, NY 10022, USA"
"139","243 EAST   58 STREET 10022","FELIDIA RESTAURANT",40.7603679,40.7603679,"premise","243 E 58th St, New York, NY 10022, USA"
"140","243 FIFTH AVENUE 11215","HIGH DIVE",40.6749187,40.6749187,"premise","243 5th Ave, Brooklyn, NY 11215, USA"
"141","243 GRAND STREET 10002","GOOD CENTURY CAFE",40.7181579,40.7181579,"premise","243 Grand St, New York, NY 10002, USA"
"142","243 MALCOLM X BLVD 11233","NATURAL BLEND 2",40.68447,40.68447,"street_address","243 Malcolm X Blvd, Brooklyn, NY 11233, USA"
"143","243 W 116TH ST 10026","PIKINE AFRICAN RESTAURANT",40.8041966,40.8041966,"street_address","243 W 116th St, New York, NY 10026, USA"
"144","243 W 14TH ST 10011","HOT N JUICY CRAWFISH",40.7395587,40.7395587,"premise","243 W 14th St, New York, NY 10011, USA"
"145","243 W 38TH ST 10018","INDIAN PROJECT",40.7542964,40.7542964,"premise","243 W 38th St, New York, NY 10018, USA"
"146","243 WEST   42 STREET 10036","CHEVYS FRESH MEX",40.7568759,40.7568759,"street_address","243 W 42nd St, New York, NY 10036, USA"
"147","243 WEST   47 STREET 10036","ETHEL BARRYMORE THEATER",40.7601064,40.7601064,"premise","243 W 47th St, New York, NY 10036, USA"
"148","243 WEST   54 STREET 10019","CHARACTERS NYC BAR & GRILL",40.764522,40.764522,"street_address","243 W 54th St, New York, NY 10019, USA"
"149","24303 MERRICK BOULEVARD 11422","USA DINER",40.6743819,40.6743819,"premise","243-03 Merrick Blvd, Jamaica, NY 11422, USA"
"150","24304 MERRICK BLVD 11422","ROSEDALE DELICATESSEN",40.6738513,40.6738513,"street_address","243-04 Merrick Blvd, Rosedale, NY 11422, USA"
"151","2431 JEROME AVENUE 10468","DIAMANTE POBLANO RESTAURANT",40.8621607,40.8621607,"premise","2431 Jerome Ave, Bronx, NY 10468, USA"
"152","24310 MERRICK BLVD 11422","ISLAND TASTE",40.6738847,40.6738847,"street_address","243-10 Merrick Blvd, Rosedale, NY 11422, USA"
"153","2432 E TREMONT AVE 10461","PEKING HOUSE",40.8423862,40.8423862,"street_address","2432 E Tremont Ave, Bronx, NY 10461, USA"
"154","2432 GRAND CONCOURSE 10458","SUBWAY",40.860521,40.860521,"street_address","2432 Grand Concourse, Bronx, NY 10458, USA"
"155","2434 STILLWELL AVE 11223","H & Y BAKERY",40.58797,40.58797,"street_address","2434 Stillwell Ave, Brooklyn, NY 11223, USA"
"156","2435 86TH ST 11214","BENSON EATING STATION",40.598897,40.598897,"street_address","2435 86th St, Brooklyn, NY 11214, USA"
"157","2436 NOSTRAND AVE 11210","CANTEEN",40.625285,40.625285,"street_address","2436 Nostrand Ave, Brooklyn, NY 11210, USA"
"158","2438 EASTCHESTER ROAD 10469","C & C DELI COFFEE SHOP & DELI",40.8621913,40.8621913,"street_address","2438 Eastchester Rd, Bronx, NY 10469, USA"
"159","2438 JEROME AVE 10468","SUBWAY",40.862218,40.862218,"street_address","2438 Jerome Ave, Bronx, NY 10468, USA"
"160","2438 STILLWELL AVENUE 11223","JOHN'S DELI",40.5878885,40.5878885,"street_address","2438 Stillwell Ave, Brooklyn, NY 11223, USA"
"161","2439 STEINWAY ST 11103","HOME MADE BAKLAWA",40.7680135,40.7680135,"street_address","24-39 Steinway St, Astoria, NY 11103, USA"
"162","2439 STEINWAY STREET 11103","LITTLE MOROCCO RESTAURANT",40.7680135,40.7680135,"street_address","24-39 Steinway St, Astoria, NY 11103, USA"
"163","244 3 AVENUE 10010","BARFLY",40.7371804,40.7371804,"street_address","244 3rd Ave, New York, NY 10010, USA"
"164","244 7TH AVE 11215","BOBO'S SMOOTHIES",40.6695511,40.6695511,"street_address","244 7th Ave, Brooklyn, NY 11215, USA"
"165","244 E 13TH ST 10003","ZABB CITY",40.7317909,40.7317909,"street_address","244 E 13th St, New York, NY 10003, USA"
"166","244 E 51ST ST 10022","KARIZMA LOUNGE",40.7556061,40.7556061,"premise","244 E 51st St, New York, NY 10022, USA"
"167","244 EAST   53 STREET 10022","T & G WHITNEY'S",40.75682,40.75682,"street_address","244 E 53rd St, New York, NY 10022, USA"
"168","244 EAST 46 STREET 10017","RISTORANTE GRIFONE",40.7524063,40.7524063,"premise","244 E 46th St, New York, NY 10017, USA"
"169","244 EAST HOUSTON STREET 10002","OPEN HOUSE",40.7223511,40.7223511,"street_address","244 E Houston St, New York, NY 10002, USA"
"170","244 FLATBUSH AVENUE 11217","TARO SUSHI",40.6796443,40.6796443,"street_address","244 Flatbush Ave, Brooklyn, NY 11217, USA"
"171","244 GRAND STREET 11211","CARIBBEAN SPORTS",40.7134713,40.7134713,"street_address","244 Grand St, Brooklyn, NY 11211, USA"
"172","244 MADISON AVE 10016","DUNKIN' DONUTS",40.7502162,40.7502162,"premise","244 Madison Ave, New York, NY 10016, USA"
"173","244 MADISON AVENUE 10016","MOONSTRUCK",40.7502162,40.7502162,"premise","244 Madison Ave, New York, NY 10016, USA"
"174","244 MULBERRY STREET 10012","THE GREY DOG MULBERRY",40.7229542,40.7229542,"premise","244 Mulberry St, New York, NY 10012, USA"
"175","244 UTICA AVENUE 11213","TOTA'S",40.6701914,40.6701914,"premise","244 Utica Ave, Brooklyn, NY 11213, USA"
"176","244 WEST   14 STREET 10011","UP AND DOWN",40.739237,40.739237,"premise","244 W 14th St, New York, NY 10011, USA"
"177","244 WEST   48 STREET 10036","PONGSRI THAI RESTAURANT",40.7606585,40.7606585,"premise","244 W 48th St, New York, NY 10036, USA"
"178","244 WEST   56 STREET 10019","JOE G  RESTAURANT (DA VINCI HOTEL)",40.7656514,40.7656514,"premise","244 W 56th St, New York, NY 10019, USA"
"179","2440 AMSTERDAM AVE 10033","EL FOGON DE ABUELA",40.8485799,40.8485799,"premise","2440 Amsterdam Ave, New York, NY 10033, USA"
"180","2440 EASTCHESTER ROAD 10469","VILLA MARIA PIZZERIA",40.862238,40.862238,"street_address","2440 Eastchester Rd, Bronx, NY 10469, USA"
"181","2441 BROADWAY 10024","CITY DINER",40.7911059,40.7911059,"street_address","2441 Broadway, New York, NY 10024, USA"
"182","24410 FRANCIS LEWIS BOULEVARD 11422","MARIO'S PIZZA",40.6649145,40.6649145,"premise","244-10 Francis Lewis Blvd, Jamaica, NY 11422, USA"
"183","24410 MERRICK BLVD 11422","MCDONALD'S",40.6739164,40.6739164,"premise","244-10 Merrick Blvd, Jamaica, NY 11422, USA"
"184","2442 BROADWAY 10024","BY THE WAY BAKERY",40.7908661,40.7908661,"street_address","2442 Broadway, New York, NY 10024, USA"
"185","2442 STEINWAY ST 11103","MAYA CUISINE",40.768194,40.768194,"street_address","24-42 Steinway St, Long Island City, NY 11103, USA"
"186","244246 WEST 14 STREET 10011","SUBWAY",40.7391517,40.7391517,"route","W 14th St, New York, NY 10011, USA"
"187","24435 MERRICK BOULEVARD 11422","J & S PIZZA",40.6742234,40.6742234,"street_address","24435 Merrick Blvd, Rosedale, NY 11422, USA"
"188","2445 CRESTON AVENUE 10468","A&E TENOCHTITLAN DELI & TAQUERIA",40.8615377,40.8615377,"street_address","2445 Creston Ave, Bronx, NY 10468, USA"
"189","2446 BROADWAY 10024","TAL BAGELS",40.7909801,40.7909801,"street_address","2446 Broadway, New York, NY 10024, USA"
"190","2448 JEROME AVENUE 10468","EL VALLE RESTAURANT",40.8624363,40.8624363,"street_address","2448 Jerome Ave, Bronx, NY 10468, USA"
"191","2449 CRESTON AVE 10468","FRESH FRUTII",40.8616303,40.8616303,"street_address","2449 Creston Ave, Bronx, NY 10468, USA"
"192","2449 VETERANS RD W 10309","DUNKIN DONUTS",40.5283652,40.5283652,"street_address","2449 Veterans Rd W, Staten Island, NY 10309, USA"
"193","245 3RD AVE 10010","LUNETTA PIZZA",40.73694,40.73694,"street_address","245 3rd Ave, New York, NY 10010, USA"
"194","245 5 AVENUE 10016","CAFE 28",40.7444051,40.7444051,"street_address","245 5th Ave, New York, NY 10016, USA"
"195","245 BLEECKER ST 10014","JUICE GENERATION",40.7309168,40.7309168,"premise","245 Bleecker St, New York, NY 10014, USA"
"196","245 BOWERY ST 10002","CATA",40.7226288,40.7226288,"premise","245 Bowery, New York, NY 10002, USA"
"197","245 BROOK AVENUE 10454","Villa Tapia Restaurant",40.8081304,40.8081304,"premise","245 Brook Ave, Bronx, NY 10454, USA"
"198","245 DEKALB AVENUE 11205","MEGA BITES DINER",40.6896315,40.6896315,"premise","245 Dekalb Ave, Brooklyn, NY 11205, USA"
"199","245 E 124TH ST 10035","BAGEL TREE",40.8024714,40.8024714,"premise","245 E 124th St, New York, NY 10035, USA"
"200","245 E 14TH ST 10003","MIMI'S HUMMUS",40.7326261,40.7326261,"street_address","245E E 14th St, New York, NY 10003, USA"
"201","245 E 80TH ST 10075","STARBUCKS",40.7743309,40.7743309,"street_address","245 E 80th St, New York, NY 10075, USA"
"202","245 E 93RD ST 10128","STATBUCKS COFFEE COMPANY",40.7827522,40.7827522,"premise","245 E 93rd St, New York, NY 10128, USA"
"203","245 EAST   55 STREET 10022","DRAUGHT 55 BAR & KITCHEN",40.758352,40.758352,"street_address","245 E 55th St, New York, NY 10022, USA"
"204","245 EAST   81 STREET 10028","BALON",40.774949,40.774949,"premise","245 E 81st St, New York, NY 10028, USA"
"205","245 EAST HOUSTON STREET 10002","REMEDY DINER",40.7217011,40.7217011,"premise","245 E Houston St, New York, NY 10002, USA"
"206","245 ELDRIDGE ST 10002","BAR GOTO",40.7227573,40.7227573,"premise","245 Eldridge St, New York, NY 10002, USA"
"207","245 FLATBUSH AVENUE 11217","DOUGHNUT PLANT",40.680627,40.680627,"premise","245 Flatbush Ave, Brooklyn, NY 11217, USA"
"208","245 GRAND STREET 10002","NAM SON RESTAURANT",40.7180433,40.7180433,"premise","245 Grand St, New York, NY 10002, USA"
"209","245 GRAND STREET 11211","THE GRAND VICTORY",40.7136453,40.7136453,"premise","245 Grand St, Brooklyn, NY 11211, USA"
"210","245 GREAVES AVENUE 10308","GREAT KILLS LITTLE LEAGUE INC",40.5601338,40.5601338,"street_address","245 Greaves Ave, Staten Island, NY 10308, USA"
"211","245 GREENWICH ST 10007","BARCLAY STREET CAFE",40.7139004,40.7139004,"street_address","245 Greenwich St, New York, NY 10007, USA"
"212","245 HARMAN ST 11237","SAPORE DI ITALIA",40.6989577,40.6989577,"premise","245 Harman St, Brooklyn, NY 11237, USA"
"213","245 HIGHLAND PLACE 11208","DUNKIN' DONUTS, BASKIN ROBBINS",40.6794133,40.6794133,"premise","245 Highland Pl, Brooklyn, NY 11208, USA"
"214","245 PARK AVE 10167","SOCIETE GENERALE CAFETERIA",40.7546045,40.7546045,"street_address","245 Park Ave, New York, NY 10167, USA"
"215","245 PARK AVENUE 10003","OAXACA MEXICAN GRILL",40.7546095,40.7546095,"street_address","245 Park Ave, New York, NY 10029, USA"
"216","245 PARK AVENUE 10017","FINANCIER PATISSERIE",40.7549367,40.7549367,"street_address","245 Park Ave, New York, NY 10167, USA"
"217","245 RALPH AVENUE 11233","THEE SEVEN SISTER'S",40.6811169,40.6811169,"premise","245 Ralph Ave, Brooklyn, NY 11233, USA"
"218","245 RICHMOND VALLEY RD 10309","LA ROSA GRILL",40.5211623,40.5211623,"street_address","245 Richmond Valley Rd, Staten Island, NY 10307, USA"
"219","245 S 1ST ST 11211","BAR 245",40.7127691,40.7127691,"street_address","245 S 1st St, Brooklyn, NY 11211, USA"
"220","245 SULLIVAN STREET 10012","NEW YORK UNIVERSITY - LAW SCHOOL CAFE",40.730124,40.730124,"street_address","245 Sullivan St, New York, NY 10012, USA"
"221","245 W 17TH ST 10011","GUCKENHEIMER @ TWITTER",40.7414238,40.7414238,"premise","245 W 17th St, New York, NY 10011, USA"
"222","245 W 29TH ST 10001","OCABANON",40.7487856,40.7487856,"premise","245 W 29th St, New York, NY 10001, USA"
"223","245 W 38TH ST 10018","BLACK IRON BURGER",40.7543282,40.7543282,"premise","245 W 38th St, New York, NY 10018, USA"
"224","245 W 51ST 10019","NIPPORI JAPANESE RESTAURANT",40.7628271,40.7628271,"street_address","245 W 51st St, New York, NY 10019, USA"
"225","245 WEST   16 STREET 10011","CAFE RIAZOR",40.7408093,40.7408093,"premise","245 W 16th St, New York, NY 10011, USA"
"226","245 WEST   51 STREET 10019","BROADWAY THAI @TOM & TOON",40.7628271,40.7628271,"street_address","245 W 51st St, New York, NY 10019, USA"
"227","245 WEST   52 STREET 10019","AUGUST WILSON THEATRE",40.7633108,40.7633108,"street_address","245 W 52nd St, New York, NY 10019, USA"
"228","245 WEST  104 STREET 10025","CAFE DU SOLEIL",40.8001477,40.8001477,"premise","245 W 104th St, New York, NY 10025, USA"
"229","245 WEST 44 STREET 10036","MAJESTIC THEATER",40.7584004,40.7584004,"street_address","245 W 44th St, New York, NY 10036, USA"
"230","2450 AMSTERDAM AVE 10033","FRASKO DELI",40.8487234,40.8487234,"street_address","2450 Amsterdam Ave, New York, NY 10033, USA"
"231","2450 BROADWAY 10024","CARMINE'S",40.7910963,40.7910963,"street_address","2450 Broadway, New York, NY 10024, USA"
"232","2450 GRAND CONCOURSE 10458","POLLO CAMPERO",40.8610232,40.8610232,"street_address","2450 Grand Concourse, Bronx, NY 10458, USA"
"233","2450 WALTON AVENUE 10468","GYRO KING",40.8621948,40.8621948,"street_address","2450 Walton Ave, Bronx, NY 10468, USA"
"234","24501 FRANCIS LEWIS BLVD 11422","SUBWAY",40.6649106,40.6649106,"premise","245-01 Francis Lewis Blvd, Rosedale, NY 11422, USA"
"235","24501 FRANCIS LEWIS BOULEVARD 11422","DUNKIN' DONUTS",40.6649106,40.6649106,"premise","245-01 Francis Lewis Blvd, Rosedale, NY 11422, USA"
"236","24501 JAMAICA AVENUE 11426","DUNKIN' DONUTS",40.7250862,40.7250862,"street_address","245-01 Jamaica Ave, Jamaica, NY 11426, USA"
"237","24505 JERICHO TPKE 11426","FRIENDS GOURMET DELI",40.7249021,40.7249021,"street_address","245-5 Jericho Turnpike, Bellerose, NY 11426, USA"
"238","24507 JERICHO TURNPIKE 11426","CHEN KAM'S GARDEN CHINESE RESTAURANT",40.724919,40.724919,"street_address","245-7 Jericho Turnpike, Bellerose, NY 11426, USA"
"239","2451 EASTCHESTER ROAD 10469","DUNKIN' DONUTS",40.862311,40.862311,"street_address","2451 Eastchester Rd, Bronx, NY 10469, USA"
"240","2451 FREDERICK DOUGLASS BLVD 10027","LIGHTHOUSE FISHMARKET",40.814343,40.814343,"street_address","2451 Frederick Douglass Blvd, New York, NY 10027, USA"
"241","24510 HORACE HARDING EXPRESSWAY 11362","OCEAN CHINESE RESTAURANT",40.7385308,40.7385308,"street_address","24510 Horace Harding Expy, Fresh Meadows, NY 11365, USA"
"242","24511 FRANCIS LEWIS BLVD 11422","SECRETS",40.664641,40.664641,"street_address","245-11 Francis Lewis Blvd, Jamaica, NY 11422, USA"
"243","24513 FRANCIS LEWIS BLVD 11422","",40.6646868,40.6646868,"street_address","24513 Francis Lewis Blvd, Rosedale, NY 11422, USA"
"244","24513 FRANCIS LEWIS BOULEVARD 11422","JUSTIN'S",40.6646868,40.6646868,"street_address","24513 Francis Lewis Blvd, Rosedale, NY 11422, USA"
"245","24515 FRANCIS LEWIS BOULEVARD 11422","CHINA GOURMET",40.6646886,40.6646886,"street_address","24515 Francis Lewis Blvd, Rosedale, NY 11422, USA"
"246","2451B EASTCHESTER RD 10469","SUBWAY",40.862311,40.862311,"street_address","2451 Eastchester Rd, Bronx, NY 10469, USA"
"247","2452 EASTCHESTER RD 10469","Yummy House",40.8625513,40.8625513,"street_address","2452 Eastchester Rd, Bronx, NY 10469, USA"
"248","2454 BROADWAY 10024","BIG DADDY'S",40.7911514,40.7911514,"street_address","2454 Broadway, New York, NY 10024, USA"
"249","2454 E TREMONT AVE 10461","SAPORE GOURMET",40.842426,40.842426,"street_address","2454 E Tremont Ave, Bronx, NY 10461, USA"
"250","2456 EASTCHESTER ROAD 10469","CARBO'S PIZZERIA",40.8625513,40.8625513,"street_address","2456 Eastchester Rd, Bronx, NY 10469, USA"
"251","2456 WILLIAMSBRIDGE ROAD 10469","IMPERIAL RESTAURANT DELI",40.8621188,40.8621188,"street_address","2456 Williamsbridge Rd, Bronx, NY 10469, USA"
"252","2457 WEBSTER AVE 10458","EZ BOCARITOS",40.8601738,40.8601738,"street_address","2457 Webster Ave, Bronx, NY 10458, USA"
"253","2459 8TH AVE 10027","CROWN FRIED CHICKEN",40.8145495,40.8145495,"premise","2459 Frederick Douglass Blvd, New York, NY 10027, USA"
"254","2459 WEBSTER AVE 10458","CHINA WOK III",40.8600673,40.8600673,"street_address","2459 Webster Ave, Bronx, NY 10458, USA"
"255","2459 WEBSTER AVENUE 10458","CHINA WOK II",40.8600673,40.8600673,"street_address","2459 Webster Ave, Bronx, NY 10458, USA"
"256","246 3 AVENUE 10010","GRAMERCY BAGEL",40.7372057,40.7372057,"street_address","246 3rd Ave, New York, NY 10010, USA"
"257","246 5TH AVE 10001","CAFFE BENE",40.7447043,40.7447043,"premise","246 5th Ave, New York, NY 10001, USA"
"258","246 DEKALB AVENUE 11205","MAISON MAY",40.6893147,40.6893147,"premise","246 Dekalb Ave, Brooklyn, NY 11205, USA"
"259","246 E 204TH ST 10458","HOUSE PIZZA",40.8741115,40.8741115,"premise","246 E 204th St, Bronx, NY 10458, USA"
"260","246 EAST   14 STREET 10003","HOTEL TORTUGA",40.7322869,40.7322869,"street_address","246 E 14th St, New York, NY 10003, USA"
"261","246 EAST   23  STREET 10010","MARINA GOURMET DELI.",40.7378922,40.7378922,"premise","246 E 23rd St, New York, NY 10010, USA"
"262","246 EAST   44 STREET 10017","ALCALA RESTAURANT",40.7511145,40.7511145,"street_address","246 E 44th St, New York, NY 10017, USA"
"263","246 EAST   51 STREET 10022","AMMA",40.7555456,40.7555456,"premise","246 E 51st St, New York, NY 10022, USA"
"264","246 GRAND STREET 10002","NEW WING WAH BAKERY",40.7184424,40.7184424,"premise","246 Grand St, New York, NY 10002, USA"
"265","246 MOTT ST 10012","MOMOFUKU MILK BAR",40.7232848,40.7232848,"street_address","246 Mott St, New York, NY 10012, USA"
"266","246 SPRING STREET 10013","TRUMP SOHO MAIN KITCHEN CAFETERIA",40.7253319,40.7253319,"premise","246 Spring St, New York, NY 10013, USA"
"267","246 W 38TH ST 10018","DISTRICT TAP HOUSE",40.7540393,40.7540393,"premise","246 W 38th St, New York, NY 10018, USA"
"268","246 WEST    4 STREET 10014","MARY'S FISH CAMP",40.7347279,40.7347279,"street_address","246 West 4th Street, New York, NY 10014, USA"
"269","246 WEST   18 STREET 10011","WESTVILLE",40.741807,40.741807,"premise","246 W 18th St, New York, NY 10011, USA"
"270","246 WEST   44 STREET 10036","ST JAMES THEATRE",40.7580098,40.7580098,"premise","St. James Theatre, 246 W 44th St, New York, NY 10036, USA"
"271","2460 NOSTRAND AVENUE 11210","LUCKY GARDEN CHINESE RESTAURANT",40.6247926,40.6247926,"premise","2460 Nostrand Ave, Brooklyn, NY 11210, USA"
"272","2460 WILLIAMSBRIDGE RD 10469","ALBA BAR CAFE",40.862322,40.862322,"street_address","2460 Williamsbridge Rd, Bronx, NY 10469, USA"
"273","24601 JERICHO TPKE 11426","",40.7252636,40.7252636,"premise","246-01 Jericho Turnpike, Bellerose, NY 11426, USA"
"274","2461 HYLAN BLVD 10306","DADDYO'S BBQ TO GO",40.5712363,40.5712363,"premise","2461 Hylan Blvd, Staten Island, NY 10306, USA"
"275","2461 UNIVERSITY AVENUE 10468","LIN HOME CHINESE RESTAURA",40.8644648,40.8644648,"street_address","2461 University Ave, Bronx, NY 10468, USA"
"276","24611 JERICHO TURNPIKE 11426","HIGH CLASS PIZZA",40.7253812,40.7253812,"street_address","246-11 Jericho Turnpike, Jamaica, NY 11426, USA"
"277","24617 JAMAICA AVENUE 11426","CHIQUI CAFE",40.7251599,40.7251599,"street_address","246-17 Jamaica Ave, Bellerose, NY 11426, USA"
"278","2462 NOSTRAND AVENUE 11210","THAT SUSHI SPOT",40.6247147,40.6247147,"premise","2462 Nostrand Ave, Brooklyn, NY 11210, USA"
"279","2463 BROADWAY 10025","LE PAIN QUOTIDIEN",40.7917978,40.7917978,"premise","2463 Broadway, New York, NY 10025, USA"
"280","2463 CRESTON AVENUE 10468","KENNEDY FRIED CHICKEN",40.8620407,40.8620407,"street_address","2463 Creston Ave, Bronx, NY 10468, USA"
"281","2463 WEBSTER AVENUE 10458","DOMINO'S",40.8603811,40.8603811,"street_address","2463 Webster Ave, Bronx, NY 10458, USA"
"282","2465 BROADWAY 10025","EQUINOX",40.7919408,40.7919408,"premise","2465 Broadway, New York, NY 10025, USA"
"283","2465 E TREMONT AVE 10461","THERE SHOULD ALWAYS BE CAKE",40.84294,40.84294,"street_address","2465 E Tremont Ave, Bronx, NY 10461, USA"
"284","2467 ARTHUR AVE 10458","LA CANTINA",40.8569509,40.8569509,"street_address","2467 Arthur Ave, Bronx, NY 10458, USA"
"285","2468 GRAND CONCOURSE 10458","FORDHAM SEAFOOD AND CHICKEN",40.861543,40.861543,"premise","2468 Grand Concourse, Bronx, NY 10458, USA"
"286","247 5 AVENUE 11215","PORK SLOPE",40.6748226,40.6748226,"street_address","247 5th Ave, Brooklyn, NY 11215, USA"
"287","247 BROOME STREET 10002","THE TEN BELLS",40.7178244,40.7178244,"premise","247 Broome St, New York, NY 10002, USA"
"288","247 DEKALB AVE 11205","BROOKLYN PUBLIC HOUSE",40.6896292,40.6896292,"premise","247 Dekalb Ave, Brooklyn, NY 11205, USA"
"289","247 DYCKMAN STREET 10034","MAMAJUANA CAFE",40.8665242,40.8665242,"street_address","247 Dyckman St, New York, NY 10034, USA"
"290","247 E 14TH ST 10003","T-SWIRL CREPE",40.7326369,40.7326369,"premise","247 E 14th St, New York, NY 10003, USA"
"291","247 E 50TH ST 10022","SHOCHU AND TAPAS AYA",40.755363,40.755363,"street_address","247 E 50th St, New York, NY 10022, USA"
"292","247 ELDRIDGE STREET 10002","LOUNGE 247 I M O K",40.722829,40.722829,"premise","247 Eldridge St, New York, NY 10002, USA"
"293","247 SMITH ST 11231","NUNEZ BAR LOUNGE",40.6832859,40.6832859,"premise","247 Smith St, Brooklyn, NY 11231, USA"
"294","247 SOUTH    1 STREET 11211","RYE",40.7126995,40.7126995,"street_address","247 S 1st St, Brooklyn, NY 11211, USA"
"295","247 VARET STREET 11206","LANGE NOIR CAFE",40.7042159,40.7042159,"street_address","247 Varet St, Brooklyn, NY 11206, USA"
"296","247 W 30TH ST 10001","AMERICAN WHISKEY",40.7494185,40.7494185,"street_address","247 W 30th St, New York, NY 10001, USA"
"297","247 W 36TH ST 10018","CULTURE 36",40.7531845,40.7531845,"premise","247 W 36th St, New York, NY 10018, USA"
"298","247 W 38TH ST 10018","RON BEN-ISRAEL CAKES",40.754354,40.754354,"premise","247 W 38th St, New York, NY 10018, USA"
"299","247 WEST   37 STREET 10018","STITCH BAR",40.7540693,40.7540693,"premise","247 W 37th St, New York, NY 10018, USA"
"300","247 WEST   72 STREET 10023","MY MOST FAVORITE FOOD",40.7795794,40.7795794,"premise","247 W 72nd St, New York, NY 10023, USA"
"301","247 WEST 42 STREET 10036","REGAL CINEMAS",40.7574173,40.7574173,"street_address","247 W 42nd St, New York, NY 10036, USA"
"302","247 WEST BROADWAY 10013","TRIBECA TAVERN",40.7196996,40.7196996,"premise","247 W Broadway, New York, NY 10013, USA"
"303","247-12-14 S CONDUIT AVE 11422","CJ's Jamaican Restaurant & Bakery No 3",40.6651528,40.6651528,"street_address","247-12 S Conduit Ave, Rosedale, NY 11422, USA"
"304","2471 HYLAN BLVD 10306","KBP FOODS",40.5710085,40.5710085,"street_address","2471 Hylan Blvd, Staten Island, NY 10306, USA"
"305","2472 86 STREET 11214","L AND Z BAKERY",40.5981363,40.5981363,"street_address","2472 86th St, Brooklyn, NY 11214, USA"
"306","2472 ARTHUR AVE 10458","M AND G RESTAURANT",40.8570601,40.8570601,"premise","2472 Arthur Ave, Bronx, NY 10458, USA"
"307","2474 FOREST AVE 10303","STATEN ISLAND 16 THEATRE",40.6259233,40.6259233,"street_address","2474 Forest Ave, Staten Island, NY 10303, USA"
"308","2476 ARTHUR AVENUE 10458","MUG-Z'S SPORTS BAR",40.8571793,40.8571793,"premise","2476 Arthur Ave, Bronx, NY 10458, USA"
"309","24763 JAMAICA AVENUE 11426","TRATTORIA LUCIA",40.7259611,40.7259611,"street_address","247-63 Jamaica Ave, Bellerose, NY 11426, USA"
"310","2477 ARTHUR AVENUE 10458","MICHAEL ANGELO'S BRICK OVEN",40.8573484,40.8573484,"premise","2477 Arthur Ave, Bronx, NY 10458, USA"
"311","24773 JAMAICA AVENUE 11426","BELLROSE DELI",40.7260483,40.7260483,"street_address","247-73 Jamaica Ave, Bellerose, NY 11426, USA"
"312","24777 JAMAICA AVENUE 11426","ROLLIN GREENS",40.7260528,40.7260528,"street_address","247-77 Jamaica Ave, Bellerose, NY 11426, USA"
"313","2478 86TH ST 11214","SAN YANG",40.5979216,40.5979216,"premise","2478 86th St, Brooklyn, NY 11214, USA"
"314","2478 CONEY ISLAND AVE 11223","MITOUSHI SUSHI ASIAN FUSION",40.5965265,40.5965265,"street_address","2478 Coney Island Ave, Brooklyn, NY 11223, USA"
"315","2479 ARTHUR AVE 10458","SIMON'S",40.857441,40.857441,"premise","2479 Arthur Ave, Bronx, NY 10458, USA"
"316","2479 BROADWAY 10025","PERFECTO PIZZERIA",40.792409,40.792409,"street_address","2479 Broadway, New York, NY 10025, USA"
"317","2479 FREDERICK DOUGLAS BOULEVARD 10027","J. RESTAURANT",40.8151722,40.8151722,"premise","2479 Frederick Douglass Blvd, New York, NY 10027, USA"
"318","247A PARK AVE S 10003","GRAMERCY FARMER & THE FISH",40.7381342,40.7381342,"street_address","247 Park Ave S, New York, NY 10003, USA"
"319","248 10 AVENUE 10001","BOTTINO",40.748505,40.748505,"street_address","248 10th Ave, New York, NY 10001, USA"
"320","248 5 AVENUE 11215","AL DI LA",40.6753219,40.6753219,"premise","248 5th Ave, Brooklyn, NY 11215, USA"
"321","248 BROOME ST 10002","ERIN MCKERRA'S BAKERY",40.718132,40.718132,"street_address","248 Broome St, New York, NY 10002, USA"
"322","248 COURT STREET 11201","WATTY & MEG",40.6856248,40.6856248,"premise","248 Court St, Brooklyn, NY 11201, USA"
"323","248 DEKALB AVENUE 11205","THE GREAT GEORGIANA",40.689256,40.689256,"premise","248 Dekalb Ave, Brooklyn, NY 11205, USA"
"324","248 E 52ND ST 10022","TOTTO RAMEN",40.7561508,40.7561508,"premise","248 E 52nd St, New York, NY 10022, USA"
"325","248 EAST   52 STREET 10022","HIDE CHAN RAMEN",40.7561508,40.7561508,"premise","248 E 52nd St, New York, NY 10022, USA"
"326","248 KINGSTON AVENUE 11213","BOBBY'S COFFEE SHOP",40.671039,40.671039,"premise","248 Kingston Ave, Brooklyn, NY 11213, USA"
"327","248 MCKIBBEN ST 11206","CURRANT CAFE",40.705553,40.705553,"street_address","248 McKibbin St, Brooklyn, NY 11206, USA"
"328","248 MERCER STREET 10012","THINK COFFEE",40.7283378,40.7283378,"street_address","248 Mercer St, New York, NY 10012, USA"
"329","248 MULBERRY STREET 10012","PARM",40.723027,40.723027,"street_address","248 Mulberry St, New York, NY 10012, USA"
"330","248 W 106TH ST 10025","KOKO WINGS",40.8009196,40.8009196,"premise","248 W 106th St, New York, NY 10025, USA"
"331","248 W 14TH ST 10011","BLACK TAP",40.7392999,40.7392999,"premise","248 W 14th St, New York, NY 10011, USA"
"332","248 WEST   60 STREET 10023","MANHATTAN MOVEMENT & ARTS CENTER",40.7717677,40.7717677,"street_address","248 W 60th St, New York, NY 10023, USA"
"333","248 WEST  132 STREET 10027","AMERICAN LEGION VETERANS POST",40.8139268,40.8139268,"premise","248 W 132nd St, New York, NY 10027, USA"
"334","248-03 UNION TPKE 11426","SOHNA PUNJAB INDIAN RESTAURANT",40.7426586,40.7426586,"street_address","248-03 Union Turnpike, Jamaica, NY 11426, USA"
"335","248-12 NORTHERN BLVD 11362","KORYODANG BAKERY & CAFE",40.7668933,40.7668933,"premise","248-12 Northern Blvd, Little Neck, NY 11362, USA"
"336","248-25 NORTHERN BLVD 11362","GANG SAN DEUL",40.7677353,40.7677353,"street_address","248-25 Northern Blvd, Flushing, NY 11362, USA"
"337","2480 86 STREET 11214","CHEN WON DIM SUM & BAKERY",40.5978873,40.5978873,"premise","2480 86th St, Brooklyn, NY 11214, USA"
"338","24805 UNION TURNPIKE 11426","MAJLIS LOUNGE & CAFE",40.7425518,40.7425518,"street_address","248-5 Union Turnpike, Bellerose, NY 11426, USA"
"339","24806 UNION TPKE 11426","ASIAN BOWL",40.7422553,40.7422553,"street_address","24806 Union Turnpike, Bellerose, NY 11426, USA"
"340","24808 UNION TURNPIKE 11426","TASTE OF COCHIN",40.7424149,40.7424149,"street_address","248-8 Union Turnpike, Bellerose, NY 11426, USA"
"341","24809 NORTHERN BOULEVARD 11362","DUNKIN' DONUTS",40.7674347,40.7674347,"street_address","24809 Northern Blvd, Little Neck, NY 11362, USA"
"342","2482 HOFFMAN ST 10458","THE BLUE GOOSE",40.857826,40.857826,"street_address","2482 Hoffman St, Bronx, NY 10458, USA"
"343","24822 UNION TURNPIKE 11426","BELLEROSE FAMOUS PIZZA",40.7423627,40.7423627,"premise","24822 Union Turnpike, Bellerose, NY 11426, USA"
"344","24825 NORTHERN BLVD 11362","TOSKANA PIZZERIA RESTAURANT",40.7677192,40.7677192,"street_address","24825 Northern Blvd, Little Neck, NY 11362, USA"
"345","24827 JAMAICA AVENUE 11426","TRIPLE CROWN DINER",40.726527,40.726527,"street_address","24827 Jamaica Ave, Bellerose, NY 11426, USA"
"346","2483 ARTHUR AVENUE 10458","TONY & TINA'S PIZZA",40.8576059,40.8576059,"street_address","2483 Arthur Ave, Bronx, NY 10458, USA"
"347","2483 BROADWAY 10025","CLEOPATRA'S NEEDLE",40.7922925,40.7922925,"street_address","2483 Broadway, New York, NY 10025, USA"
"348","2483 JEROME AVENUE 10468","TULCINGO BAKERY",40.863732,40.863732,"street_address","2483 Jerome Ave, Bronx, NY 10468, USA"
"349","2484 ARTHUR KILL ROAD 10309","BIG NOSE KATES",40.5540596,40.5540596,"premise","2484 Arthur Kill Rd, Staten Island, NY 10309, USA"
"350","24843 JERICHO TURNPIKE 11426","KING RICE",40.7266618,40.7266618,"street_address","248-43 Jericho Turnpike, Jamaica, NY 11426, USA"
"351","24849 JERICHO TURNPIKE 11426","PALERMO PIZZERIA RESTAURANT",40.7266856,40.7266856,"street_address","248-49 Jericho Turnpike, Jamaica, NY 11426, USA"
"352","2485 EASTCHESTER ROAD 10469","RICH RESTAURANT",40.862512,40.862512,"street_address","2485 Eastchester Rd, Bronx, NY 10469, USA"
"353","2486 BROADWAY 10025","RITA'S ICES",40.7921968,40.7921968,"street_address","2486 Broadway, New York, NY 10025, USA"
"354","2486 CONEY ISLAND AVE 11223","SUBWAY",40.5964034,40.5964034,"premise","2486 Coney Island Ave, Brooklyn, NY 11223, USA"
"355","2488 3RD AVE 10454","EL GUSTICO DOMINICANO RESTAURANT & BAR",40.809843,40.809843,"street_address","2488 Third Ave, Bronx, NY 10454, USA"
"356","2488 LINDEN BOULEVARD 11208","AMERICAN HERO EXPRESS",40.6663016,40.6663016,"premise","2488 Linden Blvd, Brooklyn, NY 11208, USA"
"357","249 4 AVENUE 11215","THE ROCK SHOP",40.6761867,40.6761867,"premise","249 4th Ave, Brooklyn, NY 11215, USA"
"358","249 9TH AVE 10001","JUN-MEN RAMEN BAR",40.7479895,40.7479895,"street_address","249 9th Ave, New York, NY 10001, USA"
"359","249 BROOME STREET 10002","ZEST",40.7178538,40.7178538,"premise","249 Broome St, New York, NY 10002, USA"
"360","249 CENTRE ST 10013","La Compagnie des Vins Supernaturels",40.7205188,40.7205188,"street_address","249 Centre St, New York, NY 10013, USA"
"361","249 COLUMBUS AVENUE 10023","ELLA KITCHEN",40.7769826,40.7769826,"street_address","249 Columbus Ave, New York, NY 10023, USA"
"362","249 E 10TH ST 10009","VACANCY PROJECT",40.7287313,40.7287313,"premise","249 E 10th St, New York, NY 10009, USA"
"363","249 E 49TH ST 10017","CLUB VOA",40.754601,40.754601,"street_address","249E E 49th St, New York, NY 10017, USA"
"364","249 E TREMONT AVE 10457","KENNEDY FRIED CHICKEN",40.8490046,40.8490046,"street_address","249 E Tremont Ave, Bronx, NY 10457, USA"
"365","249 ELDRIDGE STREET 10002","SAPPHIRE LOUNGE",40.7229641,40.7229641,"street_address","249 Eldridge St, New York, NY 10002, USA"
"366","249 PARK AVE S 10003","L'EXPRESS",40.7380466,40.7380466,"street_address","249 Park Ave S, New York, NY 10003, USA"
"367","249 RALPH AVENUE 11233","NEW GREAT TASTE RESTAURANT",40.6810091,40.6810091,"premise","249 Ralph Ave, Brooklyn, NY 11233, USA"
"368","249 VARET ST 11206","GRAN BAR",40.7043073,40.7043073,"premise","249 Varet St, Brooklyn, NY 11206, USA"
"369","249 WEST   26 STREET 10001","PARS GRILL HOUSE",40.7470964,40.7470964,"street_address","249 W 26th St, New York, NY 10001, USA"
"370","249 WEST   45 STREET 10036","IMPERIAL THEATRE",40.7590146,40.7590146,"street_address","249 W 45th St, New York, NY 10036, USA"
"371","249 WEST   49 STREET 10019","LILLIE'S",40.7615384,40.7615384,"street_address","249 W 49th St, New York, NY 10019, USA"
"372","249 WEST  231 STREET 10463","KINGSBRIDGE DONUT SHOP",40.87988,40.87988,"street_address","249 W 231st St, Bronx, NY 10463, USA"
"373","249 WEST BROADWAY 10013","ANOTHEROOM",40.7198815,40.7198815,"street_address","249 W Broadway, New York, NY 10013, USA"
"374","249-14 HORACE HARDING EXPRESSWAY 11362","RICHER'S BAKERY",40.760634,40.760634,"street_address","249-14 Horace Harding Expy, Little Neck, NY 11362, USA"
"375","2490 BROADWAY 10025","GREEN GENERATION NYC INC",40.7923787,40.7923787,"street_address","2490 Broadway, New York, NY 10025, USA"
"376","24900 HORACE HARDING EXPRESSWAY 11362","CARVEL ICE CREAM",40.7385308,40.7385308,"street_address","24900 Horace Harding Expy, Fresh Meadows, NY 11365, USA"
"377","24904 HILLSIDE AVENUE 11426","KING OF INDIA",40.734992,40.734992,"street_address","24904 Hillside Avenue, Jamaica, NY 11426, USA"
"378","24904 HORACE HARDING BOULEVARD 11362","TJK CAFE & RESTAURANT",40.7603325,40.7603325,"street_address","249-04 Horace Harding Expy, Little Neck, NY 11362, USA"
"379","2491 JEROME AVENUE 10468","NEW MILLENIUM PIZZA II",40.863742,40.863742,"street_address","2491 Jerome Ave, Bronx, NY 10468, USA"
"380","2491 VICTORY BLVD 10314","NEW YUNG HONG",40.6103717,40.6103717,"street_address","2491 Victory Blvd, Staten Island, NY 10314, USA"
"381","2491 VICTORY BOULEVARD 10314","BAGELS N BUNS",40.6103717,40.6103717,"street_address","2491 Victory Blvd, Staten Island, NY 10314, USA"
"382","24911 NORTHERN BLVD 11362","THAI ASIAN CUISINE",40.7679145,40.7679145,"street_address","249-11 Northern Blvd, Little Neck, NY 11362, USA"
"383","24919 NORTHEN BLVD 11363","MARATHON FOOD SHOP",40.7685016,40.7685016,"street_address","249-19 Northern Blvd, Flushing, NY 11362, USA"
"384","2492 7 AVENUE 10030","LITTLE OCHIE JAMAICAN CUISINE",40.821488,40.821488,"street_address","2492 7th Ave, New York, NY 10030, USA"
"385","2492 FREDERICK DOUGLASS BLVD 10030","MA DUKES",40.8152647,40.8152647,"street_address","2492 Frederick Douglass Blvd, New York, NY 10030, USA"
"386","2493 7 AVENUE 10030","HO LEE CHINESE RESTAURANT",40.8212866,40.8212866,"street_address","2493 7th Ave, New York, NY 10039, USA"
"387","2493 7TH AVE 10030","",40.8212866,40.8212866,"street_address","2493 7th Ave, New York, NY 10039, USA"
"388","24932 HORACE HARDING EXPRESSWAY 11362","PINE COURT CHINESE BISTRO",40.7607048,40.7607048,"street_address","24932 Horace Harding Expy, Little Neck, NY 11362, USA"
"389","2495 2 AVENUE 10035","TASTE OF CAFE (POTAMKIN)",40.8046176,40.8046176,"street_address","2495 2nd Ave, New York, NY 10035, USA"
"390","2496 ADAM CLAYTON POWELL JR BLVD 10030","CEA-LO CAFE",40.8216196,40.8216196,"street_address","2496 Adam Clayton Powell Jr Blvd, New York, NY 10030, USA"
"391","2496 ELM PLACE 10458","MERRYLAND BUFFET",40.8615808,40.8615808,"street_address","2496 Elm Pl, Bronx, NY 10458, USA"
"392","2498 BROADWAY 10025","STARBUCKS",40.7924531,40.7924531,"street_address","2498 Broadway, New York, NY 10025, USA"
"393","249A SCHENECTADY AVE 11213","NEW HONG KONG RESTAURANT",40.6700765,40.6700765,"street_address","249 Schenectady Ave, Brooklyn, NY 11213, USA"
"394","25 1ST AVE 10003","",40.7237699,40.7237699,"premise","25 1st Avenue, New York, NY 10003, USA"
"395","25 3 AVENUE 10003","CONTINENTAL",40.7295682,40.7295682,"premise","25 3rd Ave, New York, NY 10003, USA"
"396","25 8 AVENUE 11217","MONTAUK CLUB",40.674781,40.674781,"street_address","25 8th Ave, Brooklyn, NY 11217, USA"
"397","25 AVENUE A 10009","2A",40.723002,40.723002,"premise","St. Nicholas Kirche, 25 Avenue A, New York, NY 10009, USA"
"398","25 AVENUE B 10009","AVE NIDA",40.7222102,40.7222102,"premise","25 Avenue B, New York, NY 10009, USA"
"399","25 B HENRY STREET 10002","FINEST DUMPLING RESTAURANT",40.7130349,40.7130349,"premise","25 Henry St, New York, NY 10002, USA"
"400","25 BEDFORD PARK BLVD E 10468","KENNEDY FRIED CHICKEN",40.8731459,40.8731459,"street_address","25 Bedford Park Blvd, Bronx, NY 10468, USA"
"401","25 BOGART STREET 11206","TUTU'S",40.7041241,40.7041241,"premise","25 Bogart St, Brooklyn, NY 11206, USA"
"402","25 BOND STREET 11201","GANSO",40.6888809,40.6888809,"premise","25 Bond St, Brooklyn, NY 11201, USA"
"403","25 BRIDGE ST 10004","WHITE HORSE TAVERN",40.7037703,40.7037703,"premise","25 Bridge St, New York, NY 10004, USA"
"404","25 BROAD STREET 10004","BOBBY VAN'S STEAKHOUSE",40.7060887,40.7060887,"street_address","25 Broad St, New York, NY 10004, USA"
"405","25 BROADWAY 11249","BLANK CAFE",40.7109343,40.7109343,"premise","25 Broadway, Brooklyn, NY 11249, USA"
"406","25 CATHERINE ST 10038","FUZHOU ANPING FISHBALL",40.71271,40.71271,"street_address","25 Catherine St, New York, NY 10038, USA"
"407","25 CEDAR STREET 10006","PITA PRESS/ CEDAR LOCAL",40.7070857,40.7070857,"street_address","25 Cedar St, New York, NY 10005, USA"
"408","25 CITY ISLAND AVENUE 10464","MORRIS YACHT & BEACH CLUB",40.8376345,40.8376345,"street_address","25 City Island Ave, Bronx, NY 10464, USA"
"409","25 CLINTON ST 10002","IVAN RAMEN",40.720552,40.720552,"street_address","25 Clinton St, New York, NY 10002, USA"
"410","25 COOPER SQUARE 10003","THE STANDARD EAST VILLAGE",40.7279316,40.7279316,"street_address","25 Cooper Sq, New York, NY 10003, USA"
"411","25 EAST   17 STREET 10003","CHLOE'S SOFT SERVE FRUIT CO.",40.7373777,40.7373777,"street_address","25 E 17th St, New York, NY 10003, USA"
"412","25 EAST   73 STREET 10021","VIA QUADRONNO",40.772775,40.772775,"premise","25 E 73rd St, New York, NY 10021, USA"
"413","25 EAST   77 STREET 10075","THE MARK RESTAURANT",40.7752711,40.7752711,"street_address","25 E 77th St, New York, NY 10075, USA"
"414","25 EAST   78 STREET 10075","MANHATTAN WEST",40.775867,40.775867,"premise","25 E 78th St, New York, NY 10075, USA"
"415","25 EAST   83 STREET 10028","GIOVANNI 25",40.7792049,40.7792049,"premise","25 E 83rd St, New York, NY 10028, USA"
"416","25 EAST  170 STREET 10452","LA SABROSURA",40.839972,40.839972,"street_address","25 E 170th St, Bronx, NY 10452, USA"
"417","25 EAST BROADWAY 10002","M & W BAKERY",40.713344,40.713344,"premise","25 E Broadway, New York, NY 10002, USA"
"418","25 ESSEX STREET 10002","LES CREPES & TAQUERIA",40.7154746,40.7154746,"street_address","25 Essex St, New York, NY 10002, USA"
"419","25 FLATBUSH AVE 11217","POPEYES'S",40.6879686,40.6879686,"street_address","25 Flatbush Ave, Brooklyn, NY 11217, USA"
"420","25 HUDSON STREET 10013","NINJA RESTAURANT",40.7168467,40.7168467,"street_address","25 Hudson St, New York, NY 10013, USA"
"421","25 JOHN STREET 10038","TOASTIES",40.7098097,40.7098097,"street_address","25 John St, New York, NY 10038, USA"
"422","25 LAFAYETTE AVENUE 11217","BERLYN",40.68709,40.68709,"street_address","25 Lafayette Ave, Brooklyn, NY 11217, USA"
"423","25 MADISON AVE 10010","SONY CLUB",40.7418876,40.7418876,"street_address","25 Madison Ave, New York, NY 10016, USA"
"424","25 MARCUS GARVEY BLVD 11206","PEKING KITCHEN",40.6989169,40.6989169,"premise","25 Marcus Garvey Blvd, Brooklyn, NY 11206, USA"
"425","25 MURRAY STREET 10007","TAKAHACHI BAKERY",40.7138634,40.7138634,"street_address","25 Murray Street, New York, NY 10007, USA"
"426","25 NORTH MOORE STREET 10013","BRANDY LIBRARY LOUNGE",40.7199979,40.7199979,"premise","25 N Moore St, New York, NY 10013, USA"
"427","25 PARK PLACE 10007","LENWICH",40.7133461,40.7133461,"premise","25 Park Pl, New York, NY 10007, USA"
"428","25 PELL STREET 10013","JOE'S GINGER RESTAURANT",40.7147547,40.7147547,"street_address","25 Pell St, New York, NY 10013, USA"
"429","25 SHERMAN AVE 10040","BERTI RESTAURANT & LOUNGE",40.8624616,40.8624616,"premise","25 Sherman Ave, New York, NY 10040, USA"
"430","25 ST MARKS PLACE 10003","KENKA",40.7291502,40.7291502,"premise","25 St Marks Pl, New York, NY 10003, USA"
"431","25 UNION SQ W 10003","STARBUCKS",40.7362882,40.7362882,"premise","25 Union Square W, New York, NY 10003, USA"
"432","25 VICTORY BLVD 10301","DOMINO'S",40.6379641,40.6379641,"premise","25 Victory Blvd, Staten Island, NY 10301, USA"
"433","25 W 23RD ST 10010","INDIKITCH",40.7421758,40.7421758,"premise","25 W 23rd St, New York, NY 10010, USA"
"434","25 W 26TH ST 10010","MY COOKING PARTY",40.7443778,40.7443778,"premise","25 W 26th St, New York, NY 10010, USA"
"435","25 W 37TH ST 10018","Spring Hill Hotel",40.7512062,40.7512062,"premise","25 W 37th St, New York, NY 10018, USA"
"436","25 W 8TH ST 10011","RASA",40.7329985,40.7329985,"premise","25 W 8th St, New York, NY 10011, USA"
"437","25 WATERSIDE PLZ 10010","WATERSIDE CAFE",40.7372562,40.7372562,"street_address","25 Waterside Plaza, New York, NY 10010, USA"
"438","25 WEST   14 STREET 10011","CLAY",40.7368588,40.7368588,"street_address","25 W 14th St, New York, NY 10011, USA"
"439","25 WEST   32 STREET 10001","CHORUS MUSIC STUDIO/ CHORUS KARAOKE LOUNGE BAR",40.7479292,40.7479292,"premise","25 W 32nd St, New York, NY 10001, USA"
"440","25 WEST   35 STREET 10001","CAFE RUSTICO II",40.7498382,40.7498382,"premise","25 W 35th St, New York, NY 10001, USA"
"441","25 WEST   43 STREET 10036","DUNKIN' DONUTS, BASKIN ROBBINS",40.7550559,40.7550559,"street_address","25 W 43rd St, New York, NY 10036, USA"
"442","25 WEST   45 STREET 10036","CHIPOTLE MEXICAN GRILL",40.7561529,40.7561529,"premise","25 W 45th St, New York, NY 10036, USA"
"443","25 WEST   51 STREET 10019","JOHNNY UTAHS",40.7600425,40.7600425,"street_address","25 W 51st St, New York, NY 10019, USA"
"444","25 WEST 40TH STREET 10018","BRYANT PARK GRILL",40.7531718,40.7531718,"premise","25 W 40th St, New York, NY 10018, USA"
"445","25 WEST HOUSTON STREET 10012","BURGER & BARREL",40.7257133,40.7257133,"premise","25 W Houston St, New York, NY 10012, USA"
"446","25-21 STEINWAY STREET 11103","FIRDOS CAFE",40.7672948,40.7672948,"street_address","25-21 Steinway St, Long Island City, NY 11103, USA"
"447","25-37 STEINWAY STREET 11103","EASTERN NIGHTS",40.766888,40.766888,"street_address","25-37 Steinway St, Long Island City, NY 11103, USA"
"448","25-67 FRANCIS LEWIS BLVD 11358","KING WOK",40.7733839,40.7733839,"street_address","25-67 Francis Lewis Blvd, Flushing, NY 11358, USA"
"449","250 10TH AVE 10001","SUBWAY",40.7486115,40.7486115,"premise","250 10th Ave, New York, NY 10001, USA"
"450","250 4 AVENUE 11215","OAXACA",40.6766448,40.6766448,"premise","250 4th Ave, Brooklyn, NY 11215, USA"
"451","250 AVENUE X 11223","DOWNHOUSE LOUNGE",40.5899548,40.5899548,"premise","250 Avenue X, Brooklyn, NY 11223, USA"
"452","250 BEDFORD PARK BLVD W 10468","CARMEN CAFE ( Carmen Hall)",40.8748896,40.8748896,"street_address","250 Bedford Park Blvd W, Bronx, NY 10468, USA"
"453","250 BLEECKER STREET 10014","AMY'S BREAD",40.730947,40.730947,"street_address","250 Bleecker St, New York, NY 10014, USA"
"454","250 BOWERY 10012","MAMAN",40.7230937,40.7230937,"premise","250 Bowery, New York, NY 10012, USA"
"455","250 BROADWAY 10007","SUBWAY",40.7129838,40.7129838,"premise","250 Broadway, New York, NY 10007, USA"
"456","250 BROOME ST 10002","KOTTU HOUSE",40.7182032,40.7182032,"street_address","250 Broome St, New York, NY 10002, USA"
"457","250 DEKALB AVE 11205","HOJA SANTA",40.6892854,40.6892854,"premise","250 Dekalb Ave, Brooklyn, NY 11205, USA"
"458","250 E HOUSTON ST 10002","CHINATOWN CHINESE RESTAURANT",40.7220749,40.7220749,"premise","250 E Houston St, New York, NY 10002, USA"
"459","250 EAST   52 STREET 10022","YAKINIKU GEN",40.7561645,40.7561645,"premise","250 E 52nd St, New York, NY 10022, USA"
"460","250 EAST   58 STREET 10022","MOONSTRUCK DINER",40.7599803,40.7599803,"street_address","250 E 58th St, New York, NY 10022, USA"
"461","250 EAST   83 STREET 10028","ERMINIA RESTAURANT",40.7759387,40.7759387,"premise","250 E 83rd St, New York, NY 10028, USA"
"462","250 EAST  204 STREET 10458","NEW CHINA KITCHEN",40.8740772,40.8740772,"premise","250 E 204th St, Bronx, NY 10458, USA"
"463","250 EAST BURNSIDE AVENUE 10457","TOM'S COFFEE SHOP",40.8515443,40.8515443,"street_address","250 E Burnside Ave, Bronx, NY 10457, USA"
"464","250 EAST HOUSTON STREET 10002","SUBWAY",40.7220749,40.7220749,"premise","250 E Houston St, New York, NY 10002, USA"
"465","250 GREENWICH STREET 10007","MOODY'S CAFETERIA",40.713351,40.713351,"street_address","250 Greenwich St, New York, NY 10007, USA"
"466","250 JORALEMON ST 11201","STERLING AFFAIR",40.6919566,40.6919566,"premise","250 Joralemon St, Brooklyn, NY 11201, USA"
"467","250 KINGSTON AVE 11213","KINGSTON FALAFEL",40.6709377,40.6709377,"street_address","250 Kingston Ave, Brooklyn, NY 11213, USA"
"468","250 MOTT ST 10012","",40.7233661,40.7233661,"street_address","250 Mott St, New York, NY 10012, USA"
"469","250 PARK AVENUE 10003","DEVON & BLAKELY",40.7382513,40.7382513,"premise","250 Park Ave S, New York, NY 10003, USA"
"470","250 PARK AVENUE SOUTH 10003","BARBOUNIA",40.7382513,40.7382513,"premise","250 Park Ave S, New York, NY 10003, USA"
"471","250 PROSPECT PARK W 11215","DUNKIN' DONUTS",40.6591846,40.6591846,"premise","250 Prospect Park West, Brooklyn, NY 11215, USA"
"472","250 VESEY ST 10281","BANK OF NOVA SCOTIA CAFE",40.7141805,40.7141805,"street_address","250 Vesey St, New York, NY 10281, USA"
"473","250 W 55TH ST 10019","LE PAIN QUOTIDIEN",40.7649476,40.7649476,"street_address","250 W 55th St, New York, NY 10019, USA"
"474","250 W 57TH ST 10107","STARBUCKS",40.766288,40.766288,"premise","250 W 57th St, New York, NY 10107, USA"
"475","250 W 72ND ST 10023","EMERALD INN",40.7792387,40.7792387,"premise","250 W 72nd St, New York, NY 10023, USA"
"476","250 WEST   14 STREET 10011","MCKENNA'S PUB",40.739354,40.739354,"premise","250 W 14th St, New York, NY 10011, USA"
"477","250 WEST   39 STREET 10018","Kabila Cafe",40.754717,40.754717,"premise","250 W 39th St, New York, NY 10018, USA"
"478","250 WEST   43 STREET 10036","LUCKY STAR CAFE",40.7573677,40.7573677,"street_address","250 W 43rd St, New York, NY 10036, USA"
"479","250 WEST   47 STREET 10036","SCARLATTO",40.7598419,40.7598419,"street_address","250 W 47th St, New York, NY 10036, USA"
"480","250 WEST   50 STREET 10019","PALM RESTAURANT",40.7618477,40.7618477,"street_address","250 W 50th St, New York, NY 10019, USA"
"481","250 WEST   52 STREET 10019","NEIL SIMON THEATRE",40.7630894,40.7630894,"premise","250 W 52nd St, New York, NY 10019, USA"
"482","250 WEST   54 STREET 10019","EXTREME BLENDZ (CRUNCH)",40.7642452,40.7642452,"street_address","250 W 54th St, New York, NY 10019, USA"
"483","250 WEST   86 STREET 10024","THE PARLOUR",40.7883832,40.7883832,"street_address","250 W 86th St, New York, NY 10024, USA"
"484","250 WEST 27 STREET 10001","CAFE 27",40.7473431,40.7473431,"street_address","250 W 27th St, New York, NY 10001, USA"
"485","250 WYCKOFF AVE 11237","VIANNELY RESTAURANT",40.70038,40.70038,"street_address","250 Wyckoff Ave, Brooklyn, NY 11237, USA"
"486","25001 NORTHERN BOULEVARD 11362","MCDONALD'S",40.7683789,40.7683789,"street_address","250-1 Northern Blvd, Little Neck, NY 11362, USA"
"487","2501 3RD AVE 10451","Relish Caterers",40.8103408,40.8103408,"premise","2501 Third Ave, Bronx, NY 10451, USA"
"488","2501 40TH AVE 11101","HOUSE OF THAI",40.751904,40.751904,"street_address","2501 40th Ave, Long Island City, NY 11101, USA"
"489","2501 AVENUE U 11229","DUNKIN' DONUTS",40.6001588,40.6001588,"street_address","2501 Avenue U, Brooklyn, NY 11229, USA"
"490","2501 FULTON STREET 11207","PAPHOS DINER",40.6774661,40.6774661,"premise","2501 Fulton St, Brooklyn, NY 11207, USA"
"491","2501 JACKSON AVE 11101","L.A. GOURMET",40.7472594,40.7472594,"street_address","25-01 Jackson Ave, Long Island City, NY 11101, USA"
"492","2501 JEROME AVE 10468","JEROME AVENUE GRILL",40.8644901,40.8644901,"premise","2501 Jerome Ave, Bronx, NY 10468, USA"
"493","2501 WEBSTER AVE 10458","PARRILLA LATINA",40.8612232,40.8612232,"premise","2501 Webster Ave, Bronx, NY 10458, USA"
"494","25018 HILLSIDE AVENUE 11426","SURYA SWEETS & SNACKS",40.7353085,40.7353085,"street_address","250-18 Hillside Avenue, Jamaica, NY 11426, USA"
"495","2502 QUEENS PLZ S 11101","PLAZA SOUTH CAFE",40.7503167,40.7503167,"premise","25-02 Queens Plaza S, Long Island City, NY 11101, USA"
"496","2503 3 AVENUE 10451","LOS CHORITOS SPORTS BAR",40.8104253,40.8104253,"premise","2503 Third Ave, Bronx, NY 10451, USA"
"497","2503 30TH AVE 11102","3 BROS 99 CENT PIZZA",40.7686759,40.7686759,"street_address","25-03 30th Ave, Long Island City, NY 11102, USA"
"498","2503 BROADWAY 10025","EUROPAN CAFE",40.7930518,40.7930518,"premise","2503 Broadway, New York, NY 10025, USA"
"499","2503 DITMARS BOULEVARD 11105","CRESCENT & VINE",40.7787669,40.7787669,"street_address","25-03 Ditmars Blvd, Long Island City, NY 11105, USA"
"500","2503 GRAND CONCOURSE 10468","24 HOUR FITNESS CLUB #291",40.86281,40.86281,"street_address","2503 Grand Concourse, Bronx, NY 10468, USA"
"501","2503 STEINWAY ST 11103","",40.7676719,40.7676719,"street_address","25-03 Steinway St, Long Island City, NY 11103, USA"
"502","2505 EMMONS AVENUE 11235","APPLEBEE'S",40.583973,40.583973,"premise","2505 Emmons Ave, Brooklyn, NY 11235, USA"
"503","2505 RICHMOND AVENUE 10314","STARBUCKS",40.5865323,40.5865323,"premise","2505 Richmond Ave, Staten Island, NY 10314, USA"
"504","2505 SOUTHERN BOULEVARD 10458","MCDONALD'S",40.8564458,40.8564458,"premise","2505 Southern Blvd, Bronx, NY 10458, USA"
"505","2506 GRAND CONCOURSE 10458","Fordham Restaurant",40.8627235,40.8627235,"street_address","2506 Grand Concourse, Bronx, NY 10458, USA"
"506","2506 QUEENS PLZ S 11101","FRESH PICK",40.7504226,40.7504226,"street_address","25-6 Queens Plaza S, Long Island City, NY 11101, USA"
"507","2507 EASTCHESTER ROAD 10469","FRATELLI RESTAURANT",40.8630966,40.8630966,"street_address","2507 Eastchester Rd, Bronx, NY 10469, USA"
"508","2507 QUEENS PLZ N 11101","QUEENS LIC FRESH KITCHEN",40.7510523,40.7510523,"street_address","25-07 Queens Plaza N, Long Island City, NY 11101, USA"
"509","2507 STEINWAY STREET 11103","CAFFE BORBONE",40.7675709,40.7675709,"street_address","25-07 Steinway St, Long Island City, NY 11103, USA"
"510","2508 37TH AVE 11101","BIG APPLE GRIDDLE",40.7566243,40.7566243,"premise","25-08 37th Ave, Long Island City, NY 11101, USA"
"511","2508 BROADWAY 10025","SUBWAY",40.7928328,40.7928328,"premise","2508 Broadway, New York, NY 10025, USA"
"512","2508 BROADWAY 11106","THE NEW PORTALES TAQUERIA",40.7630808,40.7630808,"premise","2508A Broadway, Astoria, NY 11106, USA"
"513","2508 HYLAN BLVD 10306","CIRAGAN PALACE",40.5699547,40.5699547,"street_address","2508 Hylan Blvd, Staten Island, NY 10306, USA"
"514","2509 AC POWELL BLVD 10039","HARLEM GREEN PARROT BAR AND LOUNGE",40.8218547,40.8218547,"premise","2509 Adam Clayton Powell Jr Blvd, New York, NY 10039, USA"
"515","2509 FLATBUSH AVENUE 11234","SBARRO",40.6087042,40.6087042,"street_address","2509 Flatbush Ave, Brooklyn, NY 11234, USA"
"516","2509 STEINWAY STREET 11103","EGYPTIAN COFFEE SHOP",40.767575,40.767575,"street_address","25-09 Steinway St, Long Island City, NY 11103, USA"
"517","251 5 AVENUE 11215","KOS KAFFE",40.6746454,40.6746454,"street_address","251 5th Ave, Brooklyn, NY 11215, USA"
"518","251 5TH AVE 10016","BUBBLE TEA & CREPES",40.7446427,40.7446427,"street_address","251 5th Ave, New York, NY 10016, USA"
"519","251 BUSHWICK AVE 11206","THE TOPAZ",40.7073281,40.7073281,"premise","251 Bushwick Ave, Brooklyn, NY 11206, USA"
"520","251 CHURCH ST 10013","TWO HANDS TRIBECA",40.7177931,40.7177931,"premise","251 Church St, New York, NY 10013, USA"
"521","251 DYCKMAN ST 10034","Pat'e Palo",40.8664283,40.8664283,"street_address","251 Dyckman St, New York, NY 10034, USA"
"522","251 E 35TH ST 10016","Ginza Sushi",40.7456516,40.7456516,"street_address","251 E 35th St, New York, NY 10016, USA"
"523","251 E 52ND ST 10022","BAREBURGER",40.7564318,40.7564318,"street_address","251 E 52nd St, New York, NY 10022, USA"
"524","251 E 53RD ST 10022","HOT KITCHEN",40.7570478,40.7570478,"premise","251 E 53rd St, New York, NY 10022, USA"
"525","251 EAST   13 STREET 10003","MOMOFUKU MILK BAR",40.731865,40.731865,"premise","251 E 13th St, New York, NY 10003, USA"
"526","251 EAST   31 STREET 10016","MARCHIS RESTAURANT",40.7431927,40.7431927,"premise","251 E 31st St, New York, NY 10016, USA"
"527","251 EAST   45 STREET 10017","HERBS THAI BISTRO",40.7519409,40.7519409,"premise","251 E 45th St, New York, NY 10017, USA"
"528","251 EAST   82 STREET 10028","KINGS CARRIAGE HOUSE",40.7756089,40.7756089,"premise","251 E 82nd St, New York, NY 10028, USA"
"529","251 EAST  110 STREET 10029","TASTINGS",40.7935881,40.7935881,"premise","251 E 110th St, New York, NY 10029, USA"
"530","251 EAST HOUSTON STREET 10002","GAIA ITALIAN CAFE",40.7216872,40.7216872,"premise","251 E Houston St, New York, NY 10002, USA"
"531","251 JACKSON ST 11211","TASTE OF HEAVEN",40.7171513,40.7171513,"street_address","251 Jackson St, Brooklyn, NY 11211, USA"
"532","251 MURRAY STREET 10282","PICK-A-BAGEL",40.7155198,40.7155198,"street_address","251 Murray Street, New York, NY 10282, USA"
"533","251 W 30TH ST 10001","SLAKE",40.7494549,40.7494549,"street_address","251 W 30th St, New York, NY 10001, USA"
"534","251 W 55TH ST 10019","SOBA NOODLE AZUMA",40.7653006,40.7653006,"premise","251 W 55th St, New York, NY 10019, USA"
"535","251 WEST   18 STREET 10011","CITY CAKES",40.7420957,40.7420957,"premise","251 W 18th St, New York, NY 10011, USA"
"536","251 WEST   42 STREET 10036","STARBUCKS",40.7571932,40.7571932,"street_address","251 W 42nd St, New York, NY 10036, USA"
"537","251 WEST   50 STREET 10019","TOLOACHE MEXICAN BISTRO",40.7623091,40.7623091,"street_address","251 W 50th St, New York, NY 10019, USA"
"538","251 WEST   55 STREET 10019","YAKITORI TOTTO",40.7653006,40.7653006,"premise","251 W 55th St, New York, NY 10019, USA"
"539","251 WEST   72 STREET 10023","SUSHI YASAKA",40.7796602,40.7796602,"premise","251 W 72nd St, New York, NY 10023, USA"
"540","251 WEST   85 STREET 10024","KASBAH BBQ & GRILL",40.7879977,40.7879977,"premise","251 W 85th St, New York, NY 10024, USA"
"541","251 West 51 St 10019","MCHALE'S BAR & GRILL",40.7628895,40.7628895,"premise","251 W 51st St, New York, NY 10019, USA"
"542","251 WILSON AVE 11237","IC BROOKLYN CAFE",40.6981812,40.6981812,"premise","251 Wilson Ave, Brooklyn, NY 11237, USA"
"543","2510 BROADWAY 11106","HONG KONG KITCHEN",40.7630667,40.7630667,"street_address","25-10 Broadway, Long Island City, NY 11106, USA"
"544","2510 HYLAN BLVD 10306","Yogurt City",40.5698876,40.5698876,"street_address","2510 Hylan Blvd, Staten Island, NY 10306, USA"
"545","25103 NORTHERN BLVD 11362","LITTLE NECK",40.769285,40.769285,"street_address","251-03 Northern Blvd, Flushing, NY 11362, USA"
"546","25105 JAMAICA AVENUE 11426","SUBWAY",40.7269621,40.7269621,"street_address","25105 Jamaica Ave, Bellerose, NY 11426, USA"
"547","25105 JERICHO TURNPIKE 11426","STARBUCKS",40.7268609,40.7268609,"street_address","251-5 Jericho Turnpike, Bellerose, NY 11426, USA"
"548","25109 NORTHERN BLVD 11362","",40.7689761,40.7689761,"street_address","251-9 Northern Blvd, Little Neck, NY 11362, USA"
"549","2511 30 AVENUE 11102","FATHER & SON DELI",40.7685404,40.7685404,"street_address","25-11 30th Ave, Long Island City, NY 11102, USA"
"550","2511 ASTORIA BLVD 11102","LE FRAPE",40.7713784,40.7713784,"premise","25-11 Astoria Blvd, Long Island City, NY 11102, USA"
"551","2511 BROADWAY 11106","EUROPEAN ICE CREAM",40.7632091,40.7632091,"street_address","25-11 Broadway, Astoria, NY 11106, USA"
"552","2511 SEAGIRT AVE 11691","New Mandarin Duck Restaurant",40.5950024,40.5950024,"street_address","25-11 Seagirt Ave, Far Rockaway, NY 11691, USA"
"553","25112 HILLSIDE AVENUE 11426","OFF THE HOOKAH",40.73538,40.73538,"street_address","251-12 Hillside Avenue, Jamaica, NY 11426, USA"
"554","25113 NORTHERN BLVD 11362","NORTHERN MANOR",40.76946,40.76946,"street_address","25113 Northern Blvd, Little Neck, NY 11362, USA"
"555","25113 NORTHERN BOULEVARD 11362","RESTAURANT SALVADORENO ''EL JIBOA''",40.76946,40.76946,"street_address","25113 Northern Blvd, Little Neck, NY 11362, USA"
"556","25114 HILLSIDE AVE 11426","FRESH HOT BREAD",40.7355408,40.7355408,"street_address","25114 Hillside Avenue, Bellerose, NY 11426, USA"
"557","25116 NORTHERN BOULEVARD 11362","BBQ CHICKEN",40.7691076,40.7691076,"street_address","251-16 Northern Blvd, Little Neck, NY 11362, USA"
"558","2512 ARTHUR KILL ROAD 10309","THE HISTORIC OLD BERMUDA INN",40.5536306,40.5536306,"street_address","2512 Arthur Kill Rd, Staten Island, NY 10309, USA"
"559","2512 BROADWAY 11106","HITO",40.7630777,40.7630777,"street_address","25-12 Broadway, Astoria, NY 11106, USA"
"560","2512 STEINWAY STREET 11103","KABAB CAFE",40.7677472,40.7677472,"street_address","25-12 Steinway St, Long Island City, NY 11103, USA"
"561","25120 NORTHERN BLVD 11362","TEI NEI YA",40.7692248,40.7692248,"street_address","251-20 Northern Blvd, Little Neck, NY 11362, USA"
"562","25128 NORTHERN BLVD 11362","SIFU CHIO RESTAURANT",40.7689606,40.7689606,"street_address","251-28 Northern Blvd, Little Neck, NY 11362, USA"
"563","2513 30 AVENUE 11102","JERUSALEM PITA HOT",40.768571,40.768571,"street_address","25-13 30th Ave, Long Island City, NY 11102, USA"
"564","2513 QUEENS PLAZA NORTH 11101","MOMENTO RESTAURANT",40.7509949,40.7509949,"street_address","2513 Queens Plaza N, Long Island City, NY 11101, USA"
"565","2514 BROADWAY 11106","DUNKIN' DONUTS, BASKIN ROBBINS",40.7630044,40.7630044,"premise","25-14 Broadway, Long Island City, NY 11106, USA"
"566","2515 7 AVENUE 10039","HONG GARDEN CHINESE RESTAURANT",40.8219516,40.8219516,"premise","2515 7th Ave, New York, NY 10039, USA"
"567","2515 BOSTON RD 10467","VERONA PIZZA",40.8637725,40.8637725,"premise","2515 Boston Rd, Bronx, NY 10467, USA"
"568","2515 BOSTON ROAD 10467","DUNKIN' DONUTS",40.8637725,40.8637725,"premise","2515 Boston Rd, Bronx, NY 10467, USA"
"569","2515 MCDONALD AVENUE 11223","SKYLINE BILLARD",40.5907052,40.5907052,"premise","2515 McDonald Ave, Brooklyn, NY 11223, USA"
"570","2515 WILLIAMSBRIDGE RD 10469","LI'S KITCHEN",40.8634811,40.8634811,"street_address","2515 Williamsbridge Rd, Bronx, NY 10469, USA"
"571","2516 WHITE PLAINS ROAD 10467","MCDONALD'S",40.8640439,40.8640439,"premise","2516 White Plains Rd, Bronx, NY 10467, USA"
"572","2517 30TH AVE 11102","SULTAN CAFE",40.768512,40.768512,"street_address","25-17 30th Ave, Long Island City, NY 11102, USA"
"573","2517 ASTORIA BLVD 11102","NoshBorough",40.7713413,40.7713413,"premise","25-17 Astoria Blvd, Long Island City, NY 11102, USA"
"574","2517 PARSONS BLVD 11354","DUNKIN' DONUTS",40.7762673,40.7762673,"street_address","25-17 Parsons Blvd, Flushing, NY 11357, USA"
"575","2518 50TH ST 11377","MEDUSA",40.763827,40.763827,"street_address","25-18 50th St, Flushing, NY 11377, USA"
"576","2518 BROADWAY 10025","CORNER CAFE",40.7931444,40.7931444,"street_address","2518 Broadway, New York, NY 10025, USA"
"577","2519 24 AVENUE 11102","MOSAIC",40.7746577,40.7746577,"street_address","25-19 24th Ave, Astoria, NY 11102, USA"
"578","2519 40 AVENUE 11101","ANDRE'S PIZZA",40.7533429,40.7533429,"premise","25-19 40th Ave, Long Island City, NY 11101, USA"
"579","2519 AC POWELL BOULEVARD 10039","UNITED FRIED CHICKEN",40.8222453,40.8222453,"street_address","2519 Adam Clayton Powell Jr Blvd, New York, NY 10039, USA"
"580","2519 PARSONS BOULEVARD 11354","GINO'S PIZZERIA",40.7761588,40.7761588,"street_address","25-19 Parsons Blvd, Flushing, NY 11354, USA"
"581","2519 QUEENS PLAZA NORTH 11101","DUNKIN' DONUTS",40.7509299,40.7509299,"street_address","25-19 Queens Plaza N, Long Island City, NY 11101, USA"
"582","2519 WEBSTER AVENUE 10458","C & M PIZZA",40.8615446,40.8615446,"street_address","2519 Webster Ave, Bronx, NY 10458, USA"
"583","252 7TH AVE 11215","JUST SALAD",40.6694861,40.6694861,"street_address","252 7th Ave, Brooklyn, NY 11215, USA"
"584","252 8TH AVE 10011","POPEYES LOUISIANA KITCHEN",40.7450103,40.7450103,"street_address","252 8th Ave, New York, NY 10011, USA"
"585","252 BROOME ST 10002","THE LUCKY BEE",40.7181939,40.7181939,"street_address","252 Broome St, New York, NY 10002, USA"
"586","252 E 54TH ST 11203","CLARENDON CUISINE",40.6521679,40.6521679,"premise","252 E 54th St, Brooklyn, NY 11203, USA"
"587","252 EAST   77 STREET 10075","LE PAIN QUOTIDIEN",40.7719649,40.7719649,"premise","252 E 77th St, New York, NY 10075, USA"
"588","252 EAST  167 STREET 10456","CONCOURSE JAMAICAN BAKERY",40.8333583,40.8333583,"street_address","252 E 167th St, Bronx, NY 10456, USA"
"589","252 KINGS HIGHWAY 11223","AGAVE DELI GROCERY",40.6051235,40.6051235,"premise","252 Kings Hwy, Brooklyn, NY 11223, USA"
"590","252 KNICKERBOCKER AVENUE 11237","EL MAGUEY MEXICANA SALVADORENA",40.7024692,40.7024692,"premise","252 Knickerbocker Ave, Brooklyn, NY 11237, USA"
"591","252 LIVONIA AVENUE 11212","Wing Luck Restaurant",40.6622847,40.6622847,"street_address","252 Livonia Ave, Brooklyn, NY 11212, USA"
"592","252 PROSPECT PARK WEST 11215","TACOS & BURRITO GRILL",40.6591351,40.6591351,"premise","252 Prospect Park West, Brooklyn, NY 11215, USA"
"593","252 W 29TH ST 10001","HAYMAKER BAR & KITCHEN",40.7486658,40.7486658,"premise","252 W 29th St, New York, NY 10001, USA"
"594","252 W 37TH ST 10018","DISTRICT SOCIAL",40.7535849,40.7535849,"street_address","252 W 37th St, New York, NY 10018, USA"
"595","252 WEST   14 STREET 10011","IPANEMA BAR",40.7393978,40.7393978,"premise","252 W 14th St, New York, NY 10011, USA"
"596","252 WEST   43 STREET 10036","CHEETAHS GENTLEMENS CLUB & RESTAURANT",40.7572531,40.7572531,"premise","252 W 43rd St, New York, NY 10036, USA"
"597","252 WEST   45 STREET 10036","GOLDEN THEATRE",40.7587209,40.7587209,"street_address","252 W 45th St, New York, NY 10036, USA"
"598","252 WEST   46 STREET 10036","PERGOLA DES ARTISTES",40.7593263,40.7593263,"premise","252 W 46th St, New York, NY 10036, USA"
"599","252 WEST   47 STREET 10036","GLASS HOUSE TAVERN",40.759833,40.759833,"street_address","252 W 47th St, New York, NY 10036, USA"
"600","2520 PARK AVENUE 10451","SIN CITY",40.8118784,40.8118784,"premise","2520 Park Ave, Bronx, NY 10451, USA"
"601","25201 NORTHERN BOULEVARD 11362","SUSHI FAMILY",40.7700022,40.7700022,"street_address","252-01 Northern Blvd, Flushing, NY 11362, USA"
"602","25205 UNION TURNPIKE 11426","SAGAR CHINESE",40.7438783,40.7438783,"street_address","252-05 Union Turnpike, Bellerose, NY 11426, USA"
"603","2521 ASTORIA BOULEVARD 11102","EL REY MEXICAN RESTAURANT",40.7713738,40.7713738,"street_address","25-21 Astoria Blvd, Long Island City, NY 11102, USA"
"604","2521 BROADWAY 11106","BAKEWAY NYC",40.7632053,40.7632053,"street_address","2521 Broadway, Astoria, NY 11106, USA"
"605","2521 WEBSTER AVENUE 10458","GOLDEN KRUST CARIBBEAN BAKERY & GRILL",40.8615844,40.8615844,"street_address","2521 Webster Ave, Bronx, NY 10458, USA"
"606","25213 UNION TURNPIKE 11426","A CHIBAN",40.7439881,40.7439881,"street_address","252-13 Union Turnpike, Bellerose, NY 11426, USA"
"607","2522 _ASTORIA BOULEVARD 11102","THE ASTORIA WORLD MANOR",40.7709406,40.7709406,"street_address","2522 Astoria Blvd, Astoria, NY 11102, USA"
"608","2522 STEINWAY ST 11103","NEW MOMBAR INC",40.7673496,40.7673496,"street_address","25-22 Steinway St, Long Island City, NY 11103, USA"
"609","25220 NORTHERN BLVD 11362","LITTLE DUMPLING",40.7699938,40.7699938,"premise","252-20 Northern Blvd, Little Neck, NY 11362, USA"
"610","2524 BROADWAY 11106","OSAKA JAPANESE FUSION",40.7628645,40.7628645,"premise","25-24 Broadway, Astoria, NY 11106, USA"
"611","2524 CONEY ISLAND AVE 11223","KASAI",40.5952301,40.5952301,"premise","2524 Coney Island Ave, Brooklyn, NY 11223, USA"
"612","2525 ADAM CLAYTON POWELL JR BOULEVARD 10039","RED STAR CHINESE RESTAURANT",40.8224212,40.8224212,"street_address","2525 Adam Clayton Powell Jr Blvd, New York, NY 10039, USA"
"613","2525 BOSTON POST ROAD 10467","GASOLINA BAR LOUNGE",40.8639991,40.8639991,"premise","2525 Boston Post Rd, Bronx, NY 10467, USA"
"614","2525 BROADWAY 11106","FATIMA HALAL KITCHEN ASTORIA",40.7632557,40.7632557,"street_address","25-25 Broadway, Long Island City, NY 11106, USA"
"615","2525 PARSONS BOULEVARD 11354","LOTUS PAD CHINESE RESTAURANT",40.7760898,40.7760898,"street_address","25-25 Parsons Blvd, Flushing, NY 11357, USA"
"616","2526 FREDERICK DOUGLAS BOULEVARD 10030","NEW CRISPY BAMBOO",40.8161242,40.8161242,"street_address","2526 Frederick Douglass Blvd, New York, NY 10030, USA"
"617","2526 LINDEN BLVD 11208","CHINA DOLL",40.6671758,40.6671758,"street_address","2526 Linden Blvd, Brooklyn, NY 11208, USA"
"618","2527 BROADWAY 11106","THE STRAND SMOKE HOUSE",40.7632101,40.7632101,"street_address","25-27 Broadway, Astoria, NY 11106, USA"
"619","2527 PARSONS BOULEVARD 11354","PARSON'S DINER",40.7759807,40.7759807,"street_address","25-27A Parsons Blvd, Flushing, NY 11354, USA"
"620","2527 STEINWAY ST 11103","",40.7671532,40.7671532,"street_address","25-27 Steinway St, Long Island City, NY 11103, USA"
"621","2527B PARSONS BLVD 11354","SUBWAY",40.76873,40.76873,"route","Parsons Blvd, Flushing, NY 11354, USA"
"622","2528 BROADWAY 10025","TASTI D-LITE",40.7934623,40.7934623,"street_address","2528 Broadway, New York, NY 10025, USA"
"623","2529 BROADWAY 10025","STARBUCKS",40.7937668,40.7937668,"street_address","2529 Broadway, New York, NY 10025, USA"
"624","253 10 AVENUE 10001","PEPE GIALLO",40.7489719,40.7489719,"street_address","253 10th Ave, New York, NY 10001, USA"
"625","253 5TH AVE 10016","JOHN DOE BAR & KITCHEN",40.7447145,40.7447145,"premise","253 5th Ave, New York, NY 10016, USA"
"626","253 AVENUE U 11223","TASTY HOUSE",40.5970151,40.5970151,"premise","253 Avenue U, Brooklyn, NY 11223, USA"
"627","253 AVENUE X 11223","FAMOUS FRESH SUPER TACO & GRILL INC",40.5903819,40.5903819,"premise","253 Avenue X, Brooklyn, NY 11223, USA"
"628","253 BERGEN ST 11217","DOT & LINE",40.684169,40.684169,"street_address","253 Bergen St, Brooklyn, NY 11217, USA"
"629","253 BROADWAY 10310","AAA KENNEDY FRIED CHICKEN",40.635268,40.635268,"premise","253 Broadway, Staten Island, NY 10310, USA"
"630","253 BROOME STREET 10002","BARRIO CHINO",40.7179754,40.7179754,"street_address","253 Broome St, New York, NY 10002, USA"
"631","253 BUSHWICK AVE 11206","THE BOULEVARD",40.707254,40.707254,"premise","253 Bushwick Ave, Brooklyn, NY 11206, USA"
"632","253 BUSHWICK AVENUE 11206","POST NO BILLS",40.707254,40.707254,"premise","253 Bushwick Ave, Brooklyn, NY 11206, USA"
"633","253 CHURCH ST 10013","KORI TRIBECA",40.7178692,40.7178692,"premise","253 Church St, New York, NY 10013, USA"
"634","253 CONOVER STREET 11231","SUNNY'S",40.6756758,40.6756758,"premise","253 Conover St, Brooklyn, NY 11231, USA"
"635","253 EAST  149 STREET 10451","CAFE LINCOLN",40.8176743,40.8176743,"street_address","253 E 149th St, Bronx, NY 10451, USA"
"636","253 EAST  167 STREET 10456","MOM'S FRIED CHICKEN",40.8337327,40.8337327,"street_address","253 E 167th St, Bronx, NY 10456, USA"
"637","253 FLATBUSH AVENUE 11217","HUNGRY GHOST COFFEE BAR AND CAFE",40.6803252,40.6803252,"street_address","253 Flatbush Ave, Brooklyn, NY 11217, USA"
"638","253 GRAND STREET 11211","WALTER FOODS",40.7135371,40.7135371,"premise","253 Grand St, Brooklyn, NY 11211, USA"
"639","253 LIVINGSTON ST 11201","IHOP",40.6892275,40.6892275,"street_address","253 Livingston St, Brooklyn, NY 11201, USA"
"640","253 NASSAU AVENUE 11222","VINNIE'S PIZZERIA",40.7260173,40.7260173,"premise","253 Nassau Ave, Brooklyn, NY 11222, USA"
"641","253 SCHENECTADY AVE 11213","VITAL BLENDS",40.6699639,40.6699639,"premise","253 Schenectady Ave, Brooklyn, NY 11213, USA"
"642","253 VAN BRUNT ST 11231","VERONA WINE BAR",40.6797802,40.6797802,"premise","253 Van Brunt St, Brooklyn, NY 11231, USA"
"643","253 W 26TH ST 10001","ABACKY POTLUCK",40.7472247,40.7472247,"street_address","253 W 26th St, New York, NY 10001, USA"
"644","253 W 47TH ST 10036","BUFFALO WILD WINGS",40.7602076,40.7602076,"premise","253 W 47th St, New York, NY 10036, USA"
"645","253 W 51ST ST 10019","BIBBLE AND SIP",40.7629003,40.7629003,"street_address","253 W 51st St, New York, NY 10019, USA"
"646","253 WEST   11 STREET 10014","TARTINE",40.7363457,40.7363457,"premise","253 W 11th St, New York, NY 10014, USA"
"647","253 WEST   42 STREET 10036","FIVE GUYS FAMOUS BURGERS AND FRIES",40.7570301,40.7570301,"street_address","253 W 42nd St, New York, NY 10036, USA"
"648","253 WEST   55 STREET 10019","EAST JAPANESE RESTAURANT/ BAR",40.7653606,40.7653606,"street_address","253 W 55th St, New York, NY 10019, USA"
"649","253 WEST  125 STREET 10027","APOLLO THEATRE CONCESSIONS",40.8100329,40.8100329,"street_address","253 W 125th St, New York, NY 10027, USA"
"650","2530 BROADWAY 11106","BONCHON",40.7627617,40.7627617,"premise","25-30 Broadway, Long Island City, NY 11106, USA"
"651","2530 FREDERICK DOUGLASS BLVD 10030","A TASTE OF SEAFOOD RESTAURANT",40.8161748,40.8161748,"street_address","2530 Frederick Douglass Blvd, New York, NY 10030, USA"
"652","2530 HYLAN BOULEVARD 10306","BOSTON MARKET",40.5696844,40.5696844,"premise","2530 Hylan Blvd, Staten Island, NY 10306, USA"
"653","2530 PEARSALL AVE 10469","AFRICA PRODUCT DEVELOPMENT CENTERS",40.863669,40.863669,"street_address","2530 Pearsall Ave, Bronx, NY 10469, USA"
"654","2530 PITKIN AVE 11208","J & D PIZZERIA & RESTAURANT",40.674202,40.674202,"street_address","2530 Pitkin Ave, Brooklyn, NY 11208, USA"
"655","2530 VICTORY BOULEVARD 10314","CAFE DEL MONDO",40.6095401,40.6095401,"premise","2530 Victory Blvd, Staten Island, NY 10314, USA"
"656","25305 NORTHERN BOULEVARD 11362","ACE HOT BAGEL & DELI",40.7708142,40.7708142,"street_address","253-5 Northern Blvd, Little Neck, NY 11362, USA"
"657","25309 NORTHERN BOULEVARD 11362","LITTLE SAIGON CUISINE",40.7709883,40.7709883,"street_address","25309 Northern Blvd, Little Neck, NY 11362, USA"
"658","25310 HILLSIDE AVENUE 11426","SUBWAY",40.7357386,40.7357386,"street_address","253-10 Hillside Avenue, Jamaica, NY 11426, USA"
"659","25311 HILLSIDE AVENUE 11426","PIZZA HUT",40.7362905,40.7362905,"premise","253-11 Hillside Avenue, Jamaica, NY 11426, USA"
"660","25313 NORTHERN BLVD 11362","MU SHU",40.771008,40.771008,"street_address","253-13 Northern Blvd, Little Neck, NY 11362, USA"
"661","25317 NORTHERN BOULEVARD 11362","GREEK ISLANDS",40.7711931,40.7711931,"street_address","253-17 Northern Blvd, Flushing, NY 11362, USA"
"662","25319 UNION TURNPIKE 11004","BUNDU KHAN KABAB HOUSE",40.7443474,40.7443474,"street_address","253-19 Union Turnpike, Glen Oaks, NY 11004, USA"
"663","2532 BROADWAY 10025","MANHATTAN DINER",40.7936074,40.7936074,"premise","2532 Broadway, New York, NY 10025, USA"
"664","25324 NORTHERN BOULEVARD 11362","IL BACCO RISTORANTE",40.7710583,40.7710583,"street_address","253-24 Northern Blvd, Flushing, NY 11362, USA"
"665","25324 UNION TPKE 11004","CHEUNG KHEI RESTAURANT",40.7442436,40.7442436,"street_address","253-24 Union Turnpike, Glen Oaks, NY 11004, USA"
"666","253257 SHERMAN AVENUE 10034","JUNIOR'S TACOS",40.8650996,40.8650996,"route","Sherman Ave, New York, NY 10034, USA"
"667","253271 SHERMAN AVENUE 10034","MIMOSA",40.8650996,40.8650996,"route","Sherman Ave, New York, NY 10034, USA"
"668","25332 NORTHERN BOULEVARD 11362","GOOD COMPANY TAVERN",40.771261,40.771261,"street_address","253-32 Northern Blvd, Flushing, NY 11362, USA"
"669","2534 FREDERICK DOUGLASS BLVD 10030","KRISPY KRUNCHY CHICKEN",40.8162565,40.8162565,"street_address","2534 Frederick Douglass Blvd, New York, NY 10030, USA"
"670","2534 JACKSON AVE 11101","SUBWAY",40.7468597,40.7468597,"street_address","25-34 Jackson Ave, Long Island City, NY 11101, USA"
"671","2535 3 AVENUE 10451","BALIMAYA RESTAURANT",40.8110255,40.8110255,"premise","2535 Third Ave, Bronx, NY 10451, USA"
"672","2535 36TH AVE 11106","MALAGUETA  RESTAURANT",40.7579591,40.7579591,"premise","25-35 36th Ave, Astoria, NY 11106, USA"
"673","2535 GRAND CONCOURSE 10468","CORKY'S DINER",40.8634594,40.8634594,"street_address","2535 Grand Concourse, Bronx, NY 10468, USA"
"674","2535 STEINWAY ST 11103","",40.766934,40.766934,"street_address","25-35 Steinway St, Long Island City, NY 11103, USA"
"675","2536 BROADWAY 10025","LA NUEVA VICTORIA RESTAURANT",40.79371,40.79371,"street_address","2536 Broadway, New York, NY 10025, USA"
"676","2536 FREDERICK DOUGLASS BLVD 10030","",40.816503,40.816503,"street_address","2536 Frederick Douglass Blvd, New York, NY 10030, USA"
"677","2536 JACKSON AVENUE 11101","THE BURGER GARAGE",40.7468029,40.7468029,"premise","25-36 Jackson Ave, Long Island City, NY 11101, USA"
"678","2537 3 AVENUE 10451","K-LOUNGE",40.8111165,40.8111165,"premise","2537 Third Ave, Bronx, NY 10451, USA"
"679","2537 DECATUR AVENUE 10458","LITTLE CAESARS",40.8622763,40.8622763,"premise","2537 Decatur Ave, Bronx, NY 10458, USA"
"680","2537 WEBSTER AVE 10458","KENNEDY FRIED CHICKEN",40.8620177,40.8620177,"street_address","2537 Webster Ave, Bronx, NY 10458, USA"
"681","2538 PITKIN AVENUE 11208","NEW FOO SHUN RESTAURANT",40.674257,40.674257,"premise","2538 Pitkin Ave, Brooklyn, NY 11208, USA"
"682","2539 STEINWAY ST 11103","LA FANDI GRILL",40.7668419,40.7668419,"street_address","25-39 Steinway St, Long Island City, NY 11103, USA"
"683","254 - 41 HORACE HARDING EXPRESSWAY 11362","STARBUCKS",40.7640665,40.7640665,"street_address","254-41 Horace Harding Expy, Little Neck, NY 11362, USA"
"684","254 10 AVENUE 10001","CHOP SHOP",40.7486894,40.7486894,"street_address","254 10th Ave, New York, NY 10001, USA"
"685","254 5 AVENUE 10001","L&W OYSTER CO.",40.7449886,40.7449886,"premise","254 5th Ave, New York, NY 10001, USA"
"686","254 8TH AVE 10011","CHELSEA DELI AND BAKERY",40.7450708,40.7450708,"street_address","254 8th Ave, New York, NY 10011, USA"
"687","254 BROOME STREET 10002","TACHE ARTISAN CHOCOLATE",40.718227,40.718227,"street_address","254 Broome St, New York, NY 10002, USA"
"688","254 COURT STREET 11231","KITCHEN",40.6853646,40.6853646,"street_address","254 Court St, Brooklyn, NY 11231, USA"
"689","254 DRIGGS AVE 11222","TORO IRON WORKS",40.7228141,40.7228141,"premise","254 Driggs Ave, Brooklyn, NY 11222, USA"
"690","254 E 125TH ST 10035","LECHONERA LA ISLA",40.8027402,40.8027402,"premise","254 E 125th St, New York, NY 10035, USA"
"691","254 E 204TH STREET 10458","EL RINCONCITO DEL SABOR DOMINICANO",40.8740013,40.8740013,"street_address","254 E 204th St, Bronx, NY 10458, USA"
"692","254 IRVING AVE 11237","PIZZA PARTY",40.699801,40.699801,"street_address","254 Irving Ave, Brooklyn, NY 11237, USA"
"693","254 LIVONIA AVENUE 11212","NAPOLI PIZZA",40.6626291,40.6626291,"street_address","254 Livonia Ave, Brooklyn, NY 11212, USA"
"694","254 PARK AVE S 10010","2BEANS INC",40.7386299,40.7386299,"premise","254 Park Ave S, New York, NY 10010, USA"
"695","254 S 2ND ST 11211","L'INDUSRIE PIZZERIA",40.7115836,40.7115836,"street_address","254 S 2nd St, Brooklyn, NY 11211, USA"
"696","254 SAINT ANNS AVE 10454","USA SUPERHERO",40.8070179,40.8070179,"premise","254 St Ann's Ave, Bronx, NY 10454, USA"
"697","254 SOUNDVIEW AVE 10473","Maravilla's Bar & Grill",40.810868,40.810868,"premise","254 Sound View Ave, Bronx, NY 10473, USA"
"698","254 W 108TH ST 10025","MASALA CLUB",40.8026164,40.8026164,"street_address","254 W 108th St, New York, NY 10025, USA"
"699","254 W 54th St 10019","STUDIO 54 THEATRE",40.7643535,40.7643535,"premise","254 W 54th St, New York, NY 10019, USA"
"700","254 WEST   23 STREET 10011","EAST OF EIGHTH",40.7447604,40.7447604,"street_address","254 W 23rd St, New York, NY 10011, USA"
"701","254 WEST   31 STREET 10001","THE THIRSTY FAN",40.749906,40.749906,"premise","254 W 31st St, New York, NY 10001, USA"
"702","254 WEST   47 STREET 10036","TRATTORIA TRE COLORI",40.7598779,40.7598779,"premise","254 W 47th St, New York, NY 10036, USA"
"703","254 WEST   54 STREET 10019","54 BELOW",40.7643535,40.7643535,"premise","254 W 54th St, New York, NY 10019, USA"
"704","254 WEST   72 STREET 10023","SUGAR BAR",40.7793686,40.7793686,"street_address","254 W 72nd St, New York, NY 10023, USA"
"705","25402 ROCKAWAY BOULEVARD 11422","IHOP",40.6359312,40.6359312,"street_address","25402 Rockaway Blvd, Rosedale, NY 11422, USA"
"706","25404 NORTHERN BLVD 11362","LIMA 33",40.7715303,40.7715303,"street_address","254-04 Northern Blvd, Little Neck, NY 11362, USA"
"707","2541 AMSTERDAM AVE 10033","EIZENSHTEIN BAKERY",40.8512289,40.8512289,"street_address","2541 Amsterdam Ave, New York, NY 10033, USA"
"708","2541 BROADWAY 11106","SAC'S PIZZA PLACE",40.7630036,40.7630036,"premise","2541 Broadway, Astoria, NY 11106, USA"
"709","25412 NORTHERN BOULEVARD 11362","LA GROTTA RISTORANTE",40.7716355,40.7716355,"street_address","254-12 Northern Blvd, Little Neck, NY 11362, USA"
"710","25419 NORTHERN BLVD 11362","BOCCONCINI",40.7718852,40.7718852,"street_address","25419 Northern Blvd, Little Neck, NY 11362, USA"
"711","2542 STEINWAY ST 11103","DREAM CAFE",40.76699,40.76699,"street_address","25-42 Steinway St, Long Island City, NY 11103, USA"
"712","2542 WHITE PLAINS ROAD 10467","SIMPLY SEAFOOD",40.86457,40.86457,"street_address","2542 White Plains Rd, Bronx, NY 10467, USA"
"713","25420 HILLSIDE AVENUE 11004","DUNKIN' DONUTS, BASKIN ROBBINS",40.736167,40.736167,"street_address","25420 Hillside Avenue, Queens, NY 11004, USA"
"714","25425 HORACE HARDING EXPRESS 11362","CENTRE PIZZA",40.7645393,40.7645393,"street_address","25425 Horace Harding Expy, Little Neck, NY 11362, USA"
"715","25435 HORACE HARDING EXPRESSWAY 11362","JIAN CHINESE RESTAURANT",40.764761,40.764761,"street_address","25435 Horace Harding Expy, Little Neck, NY 11362, USA"
"716","25441 HORACE HARDING EXPRESSWAY 11362","PANERA BREAD",40.7649469,40.7649469,"street_address","25441 Horace Harding Expy, Little Neck, NY 11362, USA"
"717","2545 AMSTERDAM AVENUE 10033","GOLDEN CITY",40.8513311,40.8513311,"street_address","2545 Amsterdam Ave, New York, NY 10033, USA"
"718","2545-47 CROPSEY AVENUE 11214","ORANGE GRILL RESTAURANT",40.59133,40.59133,"street_address","2545 Cropsey Ave, Brooklyn, NY 11214, USA"
"719","25455 HORACE HARDING EXPRESSWAY 11362","FIVE GUYS FAMOUS BURGERS AND FRIES",40.7652333,40.7652333,"street_address","25455 Horace Harding Expy, Little Neck, NY 11362, USA"
"720","2546 7TH AVE 10039","MODHU MITA INDIAN RESTAURANT",40.8233044,40.8233044,"street_address","2546 7th Ave, New York, NY 10039, USA"
"721","2546 FREDERICK DOUGLASS BOULEVARD 10030","BARAKA BUFFET",40.816859,40.816859,"premise","2546 Frederick Douglass Blvd, New York, NY 10030, USA"
"722","25465 HORACE HARDING EXPY 11362","CHIPOTLE MEXICAN GRILL",40.7653419,40.7653419,"street_address","254-65 Horace Harding Expy, Little Neck, NY 11362, USA"
"723","2547 BROADWAY 10025","TWO BOOTS",40.7943506,40.7943506,"street_address","2547 Broadway, New York, NY 10025, USA"
"724","2547 STEINWAY ST 11103","Cafe Istanbul",40.766661,40.766661,"street_address","25-47 Steinway St, Long Island City, NY 11103, USA"
"725","2548 STEINWAY STREET 11103","EL-RAWSHEH CAFE & RESTAURANT",40.76685,40.76685,"street_address","25-48 Steinway St, Long Island City, NY 11103, USA"
"726","2549 AMSTERDAM AVENUE 10033","LAKE COMO PIZZA",40.8513871,40.8513871,"street_address","2549 Amsterdam Ave, New York, NY 10033, USA"
"727","2549 BROADWAY 10025","MCDONALD'S",40.7944285,40.7944285,"premise","2549 Broadway, New York, NY 10025, USA"
"728","254B E GUNHILL RD 10467","S & R LE JUICE BAR",40.8796872,40.8796872,"street_address","254 E Gun Hill Rd, Bronx, NY 10467, USA"
"729","255 3 AVENUE 11215","TWO TOM'S RESTAURANT II",40.6780678,40.6780678,"premise","255 3rd Ave, Brooklyn, NY 11215, USA"
"730","255 5 AVENUE 10016","BEN & JACKS STEAKHOUSE",40.7448911,40.7448911,"street_address","255 5th Ave, New York, NY 10016, USA"
"731","255 BLEECKER ST 10014","TACOMBI BLEECKER ST.",40.7311086,40.7311086,"premise","255 Bleecker St, New York, NY 10014, USA"
"732","255 BUSHWICK AVENUE 11206","CAFE LOS ARCOS",40.7071721,40.7071721,"premise","255 Bushwick Ave, Brooklyn, NY 11206, USA"
"733","255 EAST  110 STREET 10029","LEMON LIFE",40.7934335,40.7934335,"street_address","255 E 110th St, New York, NY 10029, USA"
"734","255 GREENPOINT AVENUE 11222","POINT VIEW DELI",40.73085,40.73085,"premise","255 Greenpoint Ave, Brooklyn, NY 11222, USA"
"735","255 JEFFERSON AVENUE 10306","HIP WO",40.581118,40.581118,"street_address","255 Jefferson Ave, Staten Island, NY 10306, USA"
"736","255 KINGSTON AVE 11213","KENEDY CHICKEN & GRILLS",40.6709567,40.6709567,"premise","255 Kingston Ave, Brooklyn, NY 11213, USA"
"737","255 LIVINGSTON STREET 11217","99 HOT PIZZA",40.6888242,40.6888242,"street_address","255 Livingston St, Brooklyn, NY 11217, USA"
"738","255 MALCOLM X BOULEVARD 11233","KINGS MEN",40.6838665,40.6838665,"premise","255 Malcolm X Blvd, Brooklyn, NY 11233, USA"
"739","255 SMITH STREET 11231","BATTERSBY",40.6831379,40.6831379,"premise","255 Smith St, Brooklyn, NY 11231, USA"
"740","255 VESEY STREET 10282","BLUE SMOKE",40.715015,40.715015,"street_address","255 Vesey St, New York, NY 10282, USA"
"741","255 W. 148TH ST 10039","NEW JING HUI RESTAURANT",40.8247261,40.8247261,"street_address","255 W 148th St, New York, NY 10039, USA"
"742","255 WEST   43 STREET 10036","STARBUCKS",40.757822,40.757822,"premise","255 W 43rd St, New York, NY 10036, USA"
"743","255 WEST   55 STREET 10019","VIZIO",40.7653805,40.7653805,"street_address","255 W 55th St, New York, NY 10019, USA"
"744","255 WILSON AVENUE 11237","PASTELITOS ELVYS",40.698157,40.698157,"street_address","255 Wilson Ave, Brooklyn, NY 11237, USA"
"745","2550 FRANCIS LEWIS BLVD 11358","SUBWAY",40.7733259,40.7733259,"street_address","25-50 Francis Lewis Blvd, Flushing, NY 11358, USA"
"746","2550 STEINWAY STREET 11103","JASMIN LOUNGE",40.7668184,40.7668184,"street_address","25-50 Steinway St, Long Island City, NY 11103, USA"
"747","25505 NORTHERN BOULEVARD 11362","KEBAB HOUSE",40.772264,40.772264,"street_address","255-05 Northern Blvd, Flushing, NY 11362, USA"
"748","25507 NORTHERN BOULEVARD 11362","RED LOTUS BAKERY & CAFE",40.772295,40.772295,"street_address","255-07 Northern Blvd, Flushing, NY 11362, USA"
"749","25509 HILLSIDE AVENUE 11004","SUNSHINE RESTAURANT",40.7366763,40.7366763,"street_address","255-09 Hillside Avenue, Queens, NY 11004, USA"
"750","25509 NORTHERN BOULEVARD 11362","LA BARAKA RESTAURANT",40.7723579,40.7723579,"street_address","255-09 Northern Blvd, Flushing, NY 11362, USA"
"751","2551 AMSTERDAM AVENUE 10033","GRANDMA PIZZA",40.8514632,40.8514632,"street_address","2551 Amsterdam Ave, New York, NY 10033, USA"
"752","2551 STEINWAY STREET 11103","ROTANA HOOKAH PLACE",40.7665699,40.7665699,"street_address","25-51 Steinway St, Long Island City, NY 11103, USA"
"753","25513 NORTHERN BLVD 11362","CAFE 1 OF A KIND",40.7723859,40.7723859,"street_address","255-13 Northern Blvd, Flushing, NY 11362, USA"
"754","25521 HILLSIDE AVE 11004","TEXAS CHICKEN & BURGERS",40.7366982,40.7366982,"street_address","255-21 Hillside Avenue, Glen Oaks, NY 11004, USA"
"755","2553 AMSTERDAM AVE 10033","KOSHER DELI",40.8515059,40.8515059,"street_address","2553 Amsterdam Ave, New York, NY 10033, USA"
"756","2553 AMSTERDAM AVENUE 10033","GOLAN HEIGHTS",40.8515059,40.8515059,"street_address","2553 Amsterdam Ave, New York, NY 10033, USA"
"757","2553 STEINWAY ST 11103","Boogatti",40.7664952,40.7664952,"street_address","25-53 Steinway St, Long Island City, NY 11103, USA"
"758","2554 ADAM CLAYTON POWELL JR BOULEVARD 10039","DOMINO'S",40.8235748,40.8235748,"street_address","2554 Adam Clayton Powell Jr Blvd, New York, NY 10039, USA"
"759","25541 JAMAICA AVENUE 11001","NANCY'S RESTAURANT",40.7276232,40.7276232,"street_address","255-41 Jamaica Ave, Queens, NY 11001, USA"
"760","2555 SHELL ROAD 11223","ORION PALACE",40.5896996,40.5896996,"street_address","2555 Shell Rd, Brooklyn, NY 11223, USA"
"761","2555 STEINWAY STREET 11103","DOMINO'S",40.7664824,40.7664824,"premise","25-55 Steinway St, Astoria, NY 11103, USA"
"762","2556 CONEY ISLAND AVE 11223","RETRO GRILL",40.5944661,40.5944661,"premise","2556 Coney Island Ave, Brooklyn, NY 11223, USA"
"763","2556 MCDONALD AVENUE 11223","MIKE'S CAFETERIA",40.590448,40.590448,"street_address","2556 McDonald Ave, Brooklyn, NY 11223, USA"
